timestamp,x,y,z,thrust,torque_x,torque_y,torque_z,roll,pitch,yaw,p,q,r,p_dot,q_dot,r_dot,vx,vy,vz,mass,inertia_xx,inertia_yy,inertia_zz,kt,kq,trajectory_id
0.0,6.58395244019123e-13,-8.829791277211267e-13,-2.7233115467780292e-09,0.6672651851851853,-6.172839506172839e-06,-6.172839506172839e-06,-6.172839506172839e-06,-8.99830831803621e-08,-6.709608158883521e-08,-4.518916183142634e-08,-8.998308318036209e-05,-6.709608158883521e-05,-4.518916183142634e-05,-0.089983083180362,-0.0670960815888352,-0.0451891618314263,6.583952440191229e-10,-8.829791277211264e-10,-2.7233115467780294e-06,0.068,6.86e-05,9.2e-05,0.0001366,0.01,0.00078263,4
0.001,3.951101969495409e-12,-5.298855261431344e-12,-1.0893246185877948e-08,0.6674503703703705,-1.2345679012345678e-05,-1.2345679012345678e-05,-1.2345679012345678e-05,-3.5993232559665455e-07,-2.6838433554862385e-07,-1.8075663024741294e-07,-0.0002699492515123,-0.000201288241761,-0.0001355674865285,-0.1799661683319763,-0.1341921601721738,-0.0903783246970971,3.292706725476286e-09,-4.415876133710218e-09,-8.169934639099917e-06,0.068,6.86e-05,9.2e-05,0.0001366,0.01,0.00078263,4
0.002,1.3831412765854492e-11,-1.8549425800234258e-11,-2.723311545598144e-08,0.6676355555555556,-1.851851851851852e-05,-1.851851851851852e-05,-1.851851851851852e-05,-8.998307716230059e-07,-6.709608926168869e-07,-4.5189146667812603e-07,-0.0005398985187946,-0.000402576459478,-0.000271134981331,-0.2699492672823558,-0.2012882177170358,-0.1355674948024787,9.880310796359085e-09,-1.3250570538802916e-08,-1.6339869270103487e-05,0.068,6.86e-05,9.2e-05,0.0001366,0.01,0.00078263,4
0.003,3.689058006808865e-11,-4.94742906491784e-11,-5.446623087536232e-08,0.6678207407407408,-2.469135802469136e-05,-2.469135802469136e-05,-2.469135802469136e-05,-1.799661390902994e-06,-1.3419219768781416e-06,-9.037825288164856e-07,-0.0008998309224812,-0.0006709606776355,-0.0004518916658895,-0.3599324036865243,-0.2683842181574551,-0.180756684558503,2.305916730223416e-08,-3.0924864848944135e-08,-2.7233115419380875e-05,0.068,6.86e-05,9.2e-05,0.0001366,0.01,0.00078263,4
0.004,8.301912573210399e-11,-1.1133775890232744e-10,-9.531590391609728e-08,0.668005925925926,-3.08641975308642e-05,-3.08641975308642e-05,-3.08641975308642e-05,-3.149407016808509e-06,-2.3483639817845854e-06,-1.581618296034443e-06,-0.0013497465355082,-0.0010064407850299,-0.000677837578471,-0.4499156130270088,-0.335480107394454,-0.2259459125815627,4.6128545664015345e-08,-6.186346825314905e-08,-4.084967304073496e-05,0.068,6.86e-05,9.2e-05,0.0001366,0.01,0.00078263,4
0.005,1.6606887405836195e-10,-2.2271674112348874e-10,-1.525054459604393e-07,0.6681911111111112,-3.703703703703704e-05,-3.703703703703704e-05,-3.703703703703704e-05,-5.039050266407476e-06,-3.757383568805072e-06,-2.53058664063016e-06,-0.001889645478122,-0.0014090165983259,-0.0009489727821645,-0.5398989426138191,-0.4025758132959811,-0.2711352036935004,8.3049748326258e-08,-1.113789822211613e-07,-5.7189542044342e-05,0.068,6.86e-05,9.2e-05,0.0001366,0.01,0.00078263,4
0.006,3.045157050489482e-10,-4.0838962954161086e-10,-2.287581682325292e-07,0.6683762962962964,-4.320987654320988e-05,-4.320987654320988e-05,-4.320987654320988e-05,-7.558573441941953e-06,-5.636077788701007e-06,-3.795874544906704e-06,-0.0025195279297064,-0.0018786878440227,-0.0012652973710861,-0.6298824515844108,-0.4696712456967963,-0.3163245889215886,1.3844683099058628e-07,-1.8567288841812219e-07,-7.62527222720899e-05,0.068,6.86e-05,9.2e-05,0.0001366,0.01,0.00078263,4
0.007,5.221230241006294e-10,-7.002261688959151e-10,-3.267973816973876e-07,0.6685614814814815,-4.938271604938271e-05,-4.938271604938271e-05,-4.938271604938271e-05,-1.0797958413818906e-05,-8.051544225427044e-06,-5.422667764083208e-06,-0.00323939414061,-0.002415454140421,-0.0016268114765846,-0.7198662109036261,-0.5367662963982851,-0.3615141054984969,2.176073190516811e-07,-2.91836539354304e-07,-9.803921346485842e-05,0.068,6.86e-05,9.2e-05,0.0001366,0.01,0.00078263,4
0.008,8.486059437526851e-10,-1.1380783210845904e-09,-4.493463969178434e-07,0.6687466666666667,-5.555555555555555e-05,-5.555555555555555e-05,-5.555555555555555e-05,-1.484718648511694e-05,-1.1070881162653584e-05,-7.4561504350398814e-06,-0.0040492444439736,-0.0030193149795892,-0.0020335152734468,-0.8098503033636064,-0.6038608391681861,-0.4067037968622438,3.2648291965205586e-07,-4.378521521886753e-07,-0.0001225490152204,0.068,6.86e-05,9.2e-05,0.0001366,0.01,0.00078263,4
0.009,1.3202961725233095e-09,-1.7706721271903436e-09,-5.99128523858838e-07,0.6689318518518519,-6.17283950617284e-05,-6.17283950617284e-05,-6.17283950617284e-05,-1.9796238237613348e-05,-1.4761187772906968e-05,-9.941504630898729e-06,-0.0049490792675573,-0.0036902697093294,-0.002485408986103,-0.899834823583671,-0.6709547297402135,-0.4518937126561309,4.7169022877062453e-07,-6.325938061057534e-07,-0.0001497821269409,0.068,6.86e-05,9.2e-05,0.0001366,0.01,0.00078263,4
0.01,1.9808076052821235e-09,-2.6565005708761993e-09,-7.788670716272504e-07,0.6691170370370371,-6.790123456790123e-05,-6.790123456790123e-05,-6.790123456790123e-05,-2.573509335933725e-05,-1.918956432932212e-05,-1.2923909861442412e-05,-0.0059388991455675,-0.0044283175151429,-0.0029824928948316,-0.9898198780101573,-0.7380478058135596,-0.4970839087286551,6.605114327588138e-07,-8.858284436858554e-07,-0.0001797385477684,0.068,6.86e-05,9.2e-05,0.0001366,0.01,0.00078263,4
0.011,2.881702609018813e-09,-3.8647174475656805e-09,-9.912853481341753e-07,0.6693022222222222,-7.407407407407407e-05,-7.407407407407407e-05,-7.407407407407407e-05,-3.275373045365586e-05,-2.4423112440000917e-05,-1.64485425193744e-05,-0.0070187047304837,-0.0052334574021952,-0.003524767341965,-1.0798055849162171,-0.8051398870522581,-0.5422744471333966,9.008950037366895e-07,-1.2082168766894803e-06,-0.0002124182765069,0.068,6.86e-05,9.2e-05,0.0001366,0.01,0.00078263,4
0.012,4.083158997279065e-09,-5.476032244242816e-09,-1.2391066596652832e-06,0.6694874074074074,-8.024691358024691e-05,-8.024691358024691e-05,-8.024691358024691e-05,-4.094212682990288e-05,-3.052893530496807e-05,-2.056057527242418e-05,-0.0081884968048852,-0.0061056881772796,-0.0041122327380939,-1.1697920744015624,-0.8722307750843931,-0.5874653961288798,1.2014563882602518e-06,-1.6113147966771364e-06,-0.0002478213115311,0.068,6.86e-05,9.2e-05,0.0001366,0.01,0.00078263,4
0.013,5.654637685948761e-09,-7.583606035129272e-09,-1.525054310343658e-06,0.6696725925925926,-8.641975308641975e-05,-8.641975308641975e-05,-8.641975308641975e-05,-5.0390258275559445e-05,-3.757413799571464e-05,-2.5305176401302124e-05,-0.0094482762932774,-0.0070450084307807,-0.0047448895682723,-1.2597794883921565,-0.9393202535011352,-0.6326568301784041,1.5714786886696963e-06,-2.1075737908864564e-06,-0.0002859476506783,0.068,6.86e-05,9.2e-05,0.0001366,0.01,0.00078263,4
0.014,7.675551022475814e-09,-1.0293948398918228e-08,-1.851851601468231e-06,0.6698577777777778,-9.25925925925926e-05,-9.25925925925926e-05,-9.25925925925926e-05,-6.118809881000031e-05,-4.562582775731734e-05,-3.072750908350967e-05,-0.0107980442739172,-0.0080514165186363,-0.0054227383982222,-1.3497679806398442,-1.00640808785559,-0.6778488299498413,2.020913336527053e-06,-2.7103423637889554e-06,-0.0003267972911245,0.068,6.86e-05,9.2e-05,0.0001366,0.01,0.00078263,4
0.015,1.0235931780025972e-08,-1.3727815363667413e-08,-2.222221830709661e-06,0.670042962962963,-9.876543209876544e-05,-9.876543209876544e-05,-9.876543209876544e-05,-7.342562041982013e-05,-5.475111433311973e-05,-3.6872730623011055e-05,-0.0122378019906392,-0.0091249105442977,-0.0061457798805376,-1.439757716721916,-1.0734940256614385,-0.7230414823153958,2.560380757550158e-06,-3.433866964749183e-06,-0.0003703702292414,0.068,6.86e-05,9.2e-05,0.0001366,0.01,0.00078263,4
0.016,1.3437102807474418e-08,-1.8021108385876865e-08,-2.638888291144237e-06,0.6702281481481481,-0.0001049382716049,-0.0001049382716049,-0.0001049382716049,-8.719279277575654e-05,-6.501711031195956e-05,-4.378599162577438e-05,-0.0137675508646798,-0.0102654883406891,-0.0069140147608889,-1.5297488740406004,-1.140577796391357,-0.7682348803513276,3.201171027448447e-06,-4.293293022209455e-06,-0.0004166664604345,0.068,6.86e-05,9.2e-05,0.0001366,0.01,0.00078263,4
0.017,1.739234732553892e-08,-2.3325774370700473e-08,-3.104574270105127e-06,0.6704133333333333,-0.0001111111111111,-0.0001111111111111,-0.0001111111111111,-0.0001025795829312,-7.649093149792356e-05,-5.151243512119037e-05,-0.0153872925065022,-0.0114731474521643,-0.0077274438842265,-1.61974164182248,-1.207659111475195,-0.8134291233376318,3.955244518064503e-06,-5.304665984823606e-06,-0.0004656859789608,0.068,6.86e-05,9.2e-05,0.0001366,0.01,0.00078263,4
0.018,2.2227579858762633e-08,-2.981070674066401e-08,-3.6220030478289983e-06,0.6705985185185185,-0.0001172839506172,-0.0001172839506172,-0.0001172839506172,-0.0001196759550025,-8.923969730260906e-05,-6.009719562937876e-05,-0.0170970287276201,-0.0127478851164622,-0.0085860682009842,-1.7097362211178242,-1.2747376642978967,-0.8586243167576723,4.83523253322371e-06,-6.484932369963544e-06,-0.0005174287777238,0.068,6.86e-05,9.2e-05,0.0001366,0.01,0.00078263,4
0.019,2.8082017792455344e-08,-3.766264756068647e-08,-4.193897895874764e-06,0.6707837037037037,-0.0001234567901234,-0.0001234567901234,-0.0001234567901234,-0.0001385718698306,-0.0001033305311598,-6.958539817439345e-05,-0.0188967615524199,-0.0140896982466593,-0.009489888773282,-1.7997328247998343,-1.341813130197151,-0.9038205722977688,5.8544379336927125e-06,-7.851940820022462e-06,-0.0005718948480457,0.068,6.86e-05,9.2e-05,0.0001366,0.01,0.00078263,4
0.02,3.510885354310099e-08,-4.708709072762528e-08,-4.822982075289948e-06,0.6709688888888888,-0.0001296296296296,-0.0001296296296296,-0.0001296296296296,-0.0001593572846247,-0.000118830560963,-8.002215724333864e-05,-0.0207864932299837,-0.0154985834131201,-0.0104389067811287,-1.889731677563796,-1.408885166460747,-0.949018007846731,7.026835750645649e-06,-9.424443166938808e-06,-0.0006290841794151,0.068,6.86e-05,9.2e-05,0.0001366,0.01,0.00078263,4
0.021,4.3475927330136383e-08,-5.8309186232990325e-08,-5.51197883449884e-06,0.671154074074074,-0.0001358024691358,-0.0001358024691358,-0.0001358024691358,-0.0001821221525876,-0.0001358069195244,-9.145257569141003e-05,-0.0227662262459098,-0.0169745368254437,-0.011433123528624,-1.9797330159261293,-1.475953412323623,-0.9942167474953406,8.367073787035387e-06,-1.1222095505365034e-05,-0.0006889967592088,0.068,6.86e-05,9.2e-05,0.0001366,0.01,0.00078263,4
0.022,5.3366400536401486e-08,-7.15746455078955e-08,-6.2636114068853855e-06,0.6713392592592592,-0.0001419753086419,-0.0001419753086419,-0.0001419753086419,-0.0002069564225224,-0.0001543267450576,-0.0001039217435928,-0.0248359633341332,-0.0185175543144083,-0.0124725404501598,-2.069737088223342,-1.5430174889645945,-1.039416921535774,9.890473206265109e-06,-1.326545927490517e-05,-0.0007516325723865,0.068,6.86e-05,9.2e-05,0.0001366,0.01,0.00078263,4
0.023,6.497942964395518e-08,-8.715064785974061e-08,-7.080603008042405e-06,0.6715244444444444,-0.0001481481481481,-0.0001481481481481,-0.0001481481481481,-0.0002339500384218,-0.0001744571816816,-0.000117474737038,-0.026995707488744,-0.020127631313911,-0.0135571591166208,-2.1597441546108627,-1.6100769995027338,-1.0846186664609658,1.1613029107553675e-05,-1.5576002351845126e-05,-0.000816991601157,0.068,6.86e-05,9.2e-05,0.0001366,0.01,0.00078263,4
0.024,7.853084073134143e-08,-1.0532674801054001e-07,-7.965676832657495e-06,0.6717096296296295,-0.0001543209876543,-0.0001543209876543,-0.0001543209876543,-0.0002631929390383,-0.0001962653799476,-0.000132156616876,-0.0292454619758058,-0.0218047628429044,-0.0146869812415847,-2.2497544870617667,-1.677131528993396,-1.1298221249639089,1.3551411087386274e-05,-1.817610015079937e-05,-0.000885073824615,0.068,6.86e-05,9.2e-05,0.0001366,0.01,0.00078263,4
0.025,9.425380451778108e-08,-1.2641578474723737e-07,-8.92155605100465e-06,0.6718948148148147,-0.0001604938271604,-0.0001604938271604,-0.0001604938271604,-0.0002947750574368,-0.0002198184973879,-0.0001480124274039,-0.0315852303451712,-0.0235489434873283,-0.0158620086875216,-2.3397683693653786,-1.7441806444238683,-1.1750274459368886,1.572296378643963e-05,-2.108903673669738e-05,-0.0009558792183471,0.068,6.86e-05,9.2e-05,0.0001366,0.01,0.00078263,4
0.026,1.1239951193915022e-07,-1.507547906947702e-07,-9.950963805009365e-06,0.6720799999999999,-0.0001666666666666,-0.0001666666666666,-0.0001666666666666,-0.0003287863205293,-0.0002451836990874,-0.0001650871950016,-0.0340150164422969,-0.0253601673820369,-0.0170822434719922,-2.429786097125746,-1.8112238947086263,-1.220234784470647,1.814570742136911e-05,-2.4339005947532823e-05,-0.0010294077540047,0.068,6.86e-05,9.2e-05,0.0001366,0.01,0.00078263,4
0.027,1.332378502399928e-07,-1.78705903223068e-07,-1.1056623203853652e-05,0.6722651851851851,-0.0001728395061728,-0.0001728395061728,-0.0001728395061728,-0.0003653166485914,-0.0002724281582765,-0.0001834259267126,-0.0365348244200569,-0.0272384281927211,-0.0183476877738457,-2.5198079777599856,-1.8782608106841807,-1.2654443018534751,2.0838338300842624e-05,-2.7951112528297804e-05,-0.0011056593988442,0.068,6.86e-05,9.2e-05,0.0001366,0.01,0.00078263,4
0.028,1.5705807956519684e-07,-2.1065727649959218e-07,-1.2241257319086156e-05,0.6724503703703703,-0.000179012345679,-0.000179012345679,-0.000179012345679,-0.0004044559547602,-0.0003016190569471,-0.0002030736087711,-0.0391446587505534,-0.0291837190978246,-0.0196583439394159,-2.609834330496484,-1.945290905103498,-1.31065616557023,2.382022932520404e-05,-3.195137327652416e-05,-0.0011846341152325,0.068,6.86e-05,9.2e-05,0.0001366,0.01,0.00078263,4
0.029,1.841695100343431e-07,-2.4702399469944495e-07,-1.3507589179201185e-05,0.6726355555555554,-0.0001851851851851,-0.0001851851851851,-0.0001851851851851,-0.0004462941445155,-0.0003328235864899,-0.0002240752050754,-0.0418445242369264,-0.0311960327704546,-0.0210142144887172,-2.69986548637297,-2.0123136726299755,-1.3558705493012726,2.711143046914625e-05,-3.636671819985275e-05,-0.001266331860115,0.068,6.86e-05,9.2e-05,0.0001366,0.01,0.00078263,4
0.03,2.1490217928111482e-07,-2.882489863854959e-07,-1.485834176364926e-05,0.6728207407407406,-0.0001913580246913,-0.0001913580246913,-0.0001913580246913,-0.0004909211151425,-0.0003661089483541,-0.000246475655607,-0.0446344260251608,-0.0332753613602855,-0.0224153021216385,-2.7899017882344177,-2.0793285898309617,-1.4010876329213249,3.0732669246771726e-05,-4.122499168605094e-05,-0.001350752584448,0.068,6.86e-05,9.2e-05,0.0001366,0.01,0.00078263,4
0.031,2.496075304395304e-07,-3.348039400713937e-07,-1.629623799624038e-05,0.6730059259259258,-0.0001975308641975,-0.0001975308641975,-0.0001975308641975,-0.0005384267551766,-0.0004015423547288,-0.0002703198747957,-0.0475143696158916,-0.0354216964754563,-0.0238616097241368,-2.8799435907308166,-2.146335115170793,-1.4463076024982435,3.470535115841558e-05,-4.6554953685897806e-05,-0.0014378962325911,0.068,6.86e-05,9.2e-05,0.0001366,0.01,0.00078263,4
0.032,2.886590905581338e-07,-3.871902209807485e-07,-1.7824000737899963e-05,0.673191111111111,-0.0002037037037037,-0.0002037037037037,-0.0002037037037037,-0.0005889009438308,-0.0004391910292464,-0.0002956527498318,-0.0504843608762064,-0.0376350291644597,-0.0253531403744285,-2.969991260314763,-2.213332689003342,-1.4915306502917027,3.905156011860343e-05,-5.238628090935477e-05,-0.0015277627416595,0.068,6.86e-05,9.2e-05,0.0001366,0.01,0.00078263,4
0.033,3.324531494226477e-07,-4.459397890161876e-07,-1.9444352778736093e-05,0.6733762962962961,-0.0002098765432098,-0.0002098765432098,-0.0002098765432098,-0.0006424335504055,-0.000479122207708,-0.0003225191389234,-0.0535444060514453,-0.0399153498980237,-0.0268898973491803,-3.060045175238902,-2.2803207335640434,-1.5367569747517889,4.379405886451388e-05,-5.87495680354391e-05,-0.0016203520408361,0.068,6.86e-05,9.2e-05,0.0001366,0.01,0.00078263,4
0.034,3.8140943876695953e-07,-5.116161179524031e-07,-2.116001682937537e-05,0.6735614814814813,-0.000216049382716,-0.000216049382716,-0.000216049382716,-0.0006991144336809,-0.00052140313883,-0.000350963869501,-0.0566945117769984,-0.0422626485509851,-0.0284718841296978,-3.150105725553185,-2.347298652961411,-1.581986780517502,4.895628934431183e-05,-6.567632893621556e-05,-0.0017156640506392,0.068,6.86e-05,9.2e-05,0.0001366,0.01,0.00078263,4
0.035,4.359718118516761e-07,-5.848151158677234e-07,-2.297371551152342e-05,0.6737466666666665,-0.0002222222222222,-0.0002222222222222,-0.0002222222222222,-0.0007590334412916,-0.0005661010850126,-0.0003810317363675,-0.0599346850901004,-0.0446769143841531,-0.0300991044081129,-3.2401733131019577,-2.41426583316799,-1.6272202784151582,5.456237308471654e-05,-7.319899791532031e-05,-0.001813698682148,0.068,6.86e-05,9.2e-05,0.0001366,0.01,0.00078263,4
0.036,4.966089233888406e-07,-6.661660468291532e-07,-2.4888171347704617e-05,0.6739318518518517,-0.0002283950617283,-0.0002283950617283,-0.0002283950617283,-0.0008222804090841,-0.00061328332313,-0.0004127674997951,-0.0632649334416213,-0.0471581360261639,-0.0317715620935696,-3.330248351520866,-2.48122164201076,-1.672457685456693,6.063711153716457e-05,-8.135093096142978e-05,-0.0019144558361811,0.068,6.86e-05,9.2e-05,0.0001366,0.01,0.00078263,4
0.037,5.638149097907656e-07,-7.563324538462381e-07,-2.690610675013456e-05,0.6741170370370368,-0.0002345679012345,-0.0002345679012345,-0.0002345679012345,-0.0008889451604572,-0.0006630171453413,-0.0004462158835687,-0.0666852647078549,-0.0497063014553248,-0.0334892613184075,-3.420331266233569,-2.548165429160948,-1.7176992248378615,6.720598640192491e-05,-9.016640701708483e-05,-0.0020179354024299,0.068,6.86e-05,9.2e-05,0.0001366,0.01,0.00078263,4
0.038,6.381100697202852e-07,-8.560130831095173e-07,-2.9030244008677187e-05,0.674302222222222,-0.0002407407407407,-0.0002407407407407,-0.0002407407407407,-0.0009591175056856,-0.0007153698599242,-0.0004814215729751,-0.0701956872023031,-0.0523213979814481,-0.0352522064443438,-3.5104224944482607,-2.615096526123264,-1.762945125936335,7.429515992951963e-05,-9.968062926327928e-05,-0.0021241372585426,0.068,6.86e-05,9.2e-05,0.0001366,0.01,0.00078263,4
0.039,7.200415449190859e-07,-9.659428095297364e-07,-3.1263305277837354e-05,0.6744874074074072,-0.0002469135802469,-0.0002469135802469,-0.0002469135802469,-0.0010328872412252,-0.0007704087921278,-0.0005184292127397,-0.0737962096874571,-0.0550034122276726,-0.0370604020686535,-3.600522485153991,-2.6820142462245,-1.8081956243096795,8.193147519880069e-05,-0.0001099297264202,-0.0022330612691601,0.068,6.86e-05,9.2e-05,0.0001366,0.01,0.00078263,4
0.04,8.101840012901148e-07,-1.0868935635943937e-06,-3.360801256273816e-05,0.6746725925925924,-0.000253086419753,-0.000253086419753,-0.000253086419753,-0.0011103441490035,-0.0008282012850485,-0.0005572834049085,-0.0774868413865739,-0.0577523301122741,-0.0389138530303467,-3.690631699116782,-2.748917884601517,-1.8534509616932335,9.014245637102886e-05,-0.0001209507540646,-0.0023447072849008,0.068,6.86e-05,9.2e-05,0.0001366,0.01,0.00078263,4
0.041,9.091403102094126e-07,-1.2196752595585993e-06,-3.606708770403122e-05,0.6748577777777776,-0.0002592592592592,-0.0002592592592592,-0.0002592592592592,-0.0011915779956915,-0.0008888147005256,-0.0005980287066781,-0.0812675919954494,-0.0605681368304627,-0.0408125644163446,-3.780750608875532,-2.815806718188577,-1.8987113859978637,9.895630891929775e-05,-0.0001327816959642,-0.002459075141293,0.068,6.86e-05,9.2e-05,0.0001366,0.01,0.00078263,4
0.042,1.017542230042054e-06,-1.3651367249876225e-06,-3.864325236168648e-05,0.6750429629629627,-0.0002654320987654,-0.0002654320987654,-0.0002654320987654,-0.0012766785319602,-0.0009523164200583,-0.0006407096281712,-0.0851384716941871,-0.0634508168361667,-0.0427565415676522,-3.870879698737703,-2.8826800057040147,-1.9439771513075963,0.0001084019198326,-0.000145461465429,-0.0025761646576552,0.068,6.86e-05,9.2e-05,0.0001366,0.01,0.00078263,4
0.043,1.1360510878362146e-06,-1.524166631668901e-06,-4.133922799760702e-05,0.6752281481481479,-0.0002716049382716,-0.0002716049382716,-0.0002716049382716,-0.0013657354917201,-0.0010187738457429,-0.0006853706301594,-0.0890994911589619,-0.0664003538238029,-0.0447457900855293,-3.9610194647747807,-2.949536987636228,-1.98924851787714,0.0001185088577941,-0.0001590299066812,-0.0026959756359205,0.068,6.86e-05,9.2e-05,0.0001366,0.01,0.00078263,4
0.044,1.2653584611687111e-06,-1.6976944279116807e-06,-4.415773585701297e-05,0.6754133333333331,-0.0002777777777777,-0.0002777777777777,-0.0002777777777777,-0.0014588385913443,-0.0010882544012316,-0.0007320561217331,-0.0931506615737794,-0.0694167307100319,-0.0467803158376586,-4.051170414817514,-3.016376886228969,-2.034525752129269,0.0001293073733324,-0.0001735277962427,-0.0028185078594059,0.068,6.86e-05,9.2e-05,0.0001366,0.01,0.00078263,4
0.045,1.406186860114693e-06,-1.8866912722528395e-06,-4.710149694853716e-05,0.6755985185185183,-0.0002839506172839,-0.0002839506172839,-0.0002839506172839,-0.0015560775288761,-0.0011608255327101,-0.0007808104579172,-0.0972919946422303,-0.0724999296154978,-0.0488601249643107,-4.141333068450908,-3.083198905465922,-2.0798091266520857,0.0001408283989459,-0.0001889968443411,-0.0029437610915241,0.068,6.86e-05,9.2e-05,0.0001366,0.01,0.00078263,4
0.046,1.5592904093134777e-06,-2.092170968587846e-06,-5.0173232022973936e-05,0.6757837037037034,-0.0002901234567901,-0.0002901234567901,-0.0002901234567901,-0.0016575419832198,-0.0012365547098974,-0.0008316779372354,-0.1015235025992393,-0.0756499318465524,-0.0509852238845068,-4.231507957008985,-3.150002231054551,-2.125098920196152,0.0001531035491987,-0.000205479696335,-0.0030717350744367,0.068,6.86e-05,9.2e-05,0.0001366,0.01,0.00078263,4
0.047,1.7254555301018433e-06,-2.3151909027461764e-06,-5.337566155062119e-05,0.6759688888888886,-0.0002962962962962,-0.0002962962962962,-0.0002962962962962,-0.0017633216133165,-0.0013155094270636,-0.0008847027992197,-0.1058451982228086,-0.0788667178769616,-0.0531556193021783,-4.321695623569293,-3.216786030409197,-2.170395417671477,0.0001661651207883,-0.0002230199341583,-0.0032024295276472,0.068,6.86e-05,9.2e-05,0.0001366,0.01,0.00078263,4
0.048,1.9055016226854093e-06,-2.556852980530903e-06,-5.671150569715427e-05,0.6761540740740738,-0.0003024691358024,-0.0003024691358024,-0.0003024691358024,-0.0018735060573036,-0.0013977572040698,-0.0009399292218685,-0.1102570948457558,-0.082150267329595,-0.0553713182123227,-4.411896622947161,-3.2835494526334115,-2.2156989101443765,0.0001800460925835,-0.0002416620777847,-0.003335844146533,0.068,6.86e-05,9.2e-05,0.0001366,0.01,0.00078263,4
0.049,2.100281748318025e-06,-2.818304567242537e-06,-6.0183484297969135e-05,0.676339259259259,-0.0003086419753086,-0.0003086419753086,-0.0003086419753086,-0.0019881849316593,-0.0014833655874256,-0.0009974013190512,-0.1147592063674455,-0.0855005589580965,-0.0576323279071569,-4.502111521689702,-3.350291628501508,-2.261009694834184,0.0001947801256326,-0.0002614515867116,-0.0034719786008148,0.068,6.86e-05,9.2e-05,0.0001366,0.01,0.00078263,4
0.05,2.3106833114584124e-06,-3.100739428707581e-06,-6.379431683093077e-05,0.6765244444444442,-0.0003148148148148,-0.0003148148148148,-0.0003148148148148,-0.0021074478303319,-0.0015724021513682,-0.0010571631378599,-0.119351547265515,-0.0889175706285358,-0.0599386559822667,-4.592340898069534,-3.4170116704393143,-2.3063280751098163,0.0002104015631403,-0.000282434861465,-0.0036108325329616,0.068,6.86e-05,9.2e-05,0.0001366,0.01,0.00078263,4
0.051,2.537628741872582e-06,-3.4053986738326243e-06,-6.754672238746149e-05,0.6767096296296293,-0.0003209876543209,-0.0003209876543209,-0.0003209876543209,-0.0022313843238535,-0.0016649344989589,-0.0011192586559091,-0.1240341326075933,-0.0924012793010399,-0.0622903103427529,-4.682585342078246,-3.4837086725041058,-2.3516543604861933,0.0002269454304141,-0.000304659245125,-0.0037524055565307,0.068,6.86e-05,9.2e-05,0.0001366,0.01,0.00078263,4
0.052,2.782076176649851e-06,-3.7335716987051576e-06,-7.144341964190239e-05,0.6768948148148145,-0.0003271604938271,-0.0003271604938271,-0.0003271604938271,-0.0023600839584399,-0.0017610302632007,-0.0011837317785824,-0.1288069780630128,-0.0959516610114036,-0.0646872992093734,-4.772845455419574,-3.550381710363711,-2.3969888666205046,0.0002444474347772,-0.0003281730248725,-0.0038966972544409,0.068,6.86e-05,9.2e-05,0.0001366,0.01,0.00078263,4
0.053,3.0450201420995637e-06,-4.086597132262665e-06,-7.548712681907998e-05,0.6770799999999997,-0.0003333333333333,-0.0003333333333333,-0.0003333333333333,-0.0024936362550749,-0.0018607571081734,-0.001250626336227,-0.1336700999145151,-0.0995686908526784,-0.0671296311246817,-4.863121851502299,-3.617029841274767,-2.44233191530832,0.0002629439654497,-0.0003530254335575,-0.0040437071771775,0.068,6.86e-05,9.2e-05,0.0001366,0.01,0.00078263,4
0.054,3.3274922354949e-06,-4.4658637835518855e-06,-7.968056166000846e-05,0.6772651851851849,-0.0003395061728395,-0.0003395061728395,-0.0003395061728395,-0.0026321307085807,-0.001964182730188,-0.0013199860812955,-0.138623515069948,-0.1032523429567385,-0.0696173149591612,-4.953415155432851,-3.683652104060101,-2.487683834479536,0.0002824720933953,-0.0003792666512892,-0.0041934348409284,0.068,6.86e-05,9.2e-05,0.0001366,0.01,0.00078263,4
0.055,3.6305618066294367e-06,-4.872811590600499e-06,-8.402644138565697e-05,0.67745037037037,-0.0003456790123456,-0.0003456790123456,-0.0003456790123456,-0.0027756567866743,-0.0020713748589597,-0.001391854685436,-0.1436672410739556,-0.1070025904758237,-0.0721503599173554,-5.043726004007612,-3.750247519085237,-2.5330449581941723,0.0003030695711345,-0.0004069478070486,-0.0043458797256485,0.068,6.86e-05,9.2e-05,0.0001366,0.01,0.00078263,4
0.056,3.955336639151372e-06,-5.308932570923824e-06,-8.85274826587096e-05,0.6776355555555552,-0.0003518518518518,-0.0003518518518518,-0.0003518518518518,-0.00292430392901,-0.0021824012587994,-0.0014662757365299,-0.1488012961196605,-0.1108194055640577,-0.0747287755439934,-5.134055045704916,-3.816815088234001,-2.5784156266379887,0.0003247748325219,-0.0004361209803233,-0.0045010412730526,0.068,6.86e-05,9.2e-05,0.0001366,0.01,0.00078263,4
0.057,4.302963631639618e-06,-5.775771773689462e-06,-9.318640154324468e-05,0.6778207407407404,-0.000358024691358,-0.000358024691358,-0.000358024691358,-0.0030781615462078,-0.0022973297298223,-0.0015432927356772,-0.1540256990603372,-0.1147027593589409,-0.0773525717301113,-5.224402940676751,-3.883353794883204,-2.6237961861179366,0.0003476269924882,-0.0004668392027656,-0.004658918884535,0.068,6.86e-05,9.2e-05,0.0001366,0.01,0.00078263,4
0.058,4.674629478385183e-06,-6.274928233563135e-06,-9.800591346225848e-05,0.6780059259259256,-0.0003641975308641,-0.0003641975308641,-0.0003641975308641,-0.0032373190188694,-0.0024162281091757,-0.001622949094131,-0.1593404694210774,-0.1186526219628173,-0.0800217587191688,-5.314770360740118,-3.949862603876392,-2.6691869890574424,0.0003716658467455,-0.0004991564598736,-0.0048195119190137,0.068,6.86e-05,9.2e-05,0.0001366,0.01,0.00078263,4
0.059,5.071561349840541e-06,-6.808055926259325e-06,-0.0001029887331529,0.6781911111111107,-0.0003703703703703,-0.0003703703703703,-0.0003703703703703,-0.0034018656965801,-0.002539164272283,-0.001705288130179,-0.1647456274104455,-0.122668962424314,-0.0827363471131603,-5.405157989368085,-4.016340461496651,-2.714588393991506,0.0003969318714553,-0.0005331276926961,-0.0049828196906985,0.068,6.86e-05,9.2e-05,0.0001366,0.01,0.00078263,4
0.06,5.495027408026801e-06,-7.376864725524764e-06,-0.0001081375746201,0.6783762962962959,-0.0003765432098765,-0.0003750245999777,-0.0003765432098765,-0.0035718908967559,-0.0026661896275724,-0.0017903531221277,-0.170241193932126,-0.1267352420904181,-0.0854963478787219,-5.495566521680508,-4.066279666104111,-2.76000076556162,0.0004234660581862,-0.0005688087992654,-0.005148841467211,0.068,6.86e-05,9.2e-05,0.0001366,0.01,0.00078263,4
0.061,5.946337036085591e-06,-7.983121361285094e-06,-0.0001134551510882,0.6785614814814811,-0.0003827160493827,-0.0003770488043944,-0.0003827160493827,-0.0037474839039812,-0.0027973270372685,-0.001878187358973,-0.1758271896790379,-0.1308228406161937,-0.0883017718718522,-5.58599574691194,-4.087598525775553,-2.8054239931303213,0.0004513096280587,-0.0006062566357603,-0.0053175764680708,0.068,6.86e-05,9.2e-05,0.0001366,0.01,0.00078263,4
0.062,6.426840783422667e-06,-8.628650378859205e-06,-0.0001189441749515,0.6787466666666663,-0.0003888888888888,-0.0003764602624711,-0.0003888888888888,-0.0039287339699063,-0.0029325710065759,-0.0019688341561373,-0.1815036343309575,-0.1349033243608518,-0.0911526294169424,-5.676444651919608,-4.08048374465813,-2.850857545090154,0.000480503747337,-0.0006455290175741,-0.0054890238633032,0.068,6.86e-05,9.2e-05,0.0001366,0.01,0.00078263,4
0.063,6.9379300297742665e-06,-9.315335099139865e-06,-0.0001246073577237,0.6789318518518515,-0.000395061728395,-0.0003732935940782,-0.000395061728395,-0.0041157303133088,-0.0030718880613797,-0.0020623368717665,-0.1872705463623122,-0.1389486348586671,-0.0940489302059364,-5.7669120313547335,-4.045310497815329,-2.89630078899403,0.0005110892463515,-0.0006866847202806,-0.0056631827721705,0.068,6.86e-05,9.2e-05,0.0001366,0.01,0.00078263,4
0.064,7.481036373384304e-06,-1.0045118579622009e-05,-0.0001304474099857,0.6791170370370366,-0.0004012345679012,-0.0003676003282459,-0.0004000735309352,-0.0043085621464272,-0.0032152172747902,-0.0021587304239249,-0.1931279428547881,-0.1429312725958075,-0.0969821836614679,-5.857396492475819,-3.982637737140338,-2.933253455531465,0.00054310634361,-0.0007297834804821,-0.0058400522620365,0.068,6.86e-05,9.2e-05,0.0001366,0.01,0.00078263,4
0.065,8.057630965194209e-06,-1.0820004576626783e-05,-0.0001364670413324,0.6793022222222218,-0.0004074074074074,-0.0003614274887397,-0.0004031653770477,-0.0045073186975966,-0.0033624924893824,-0.0022580356590947,-0.199075838526865,-0.1468459883654305,-0.0999383426012754,-5.947895672076951,-3.914715769623068,-2.9561589398075365,0.0005765945918099,-0.0007748859970047,-0.0060196313466627,0.068,6.86e-05,9.2e-05,0.0001366,0.01,0.00078263,4
0.066,8.669223841075969e-06,-1.1642058508774048e-05,-0.0001426689603167,0.679487407407407,-0.0004135802469135,-0.0003552546492335,-0.0004043453927198,-0.0047120892180504,-0.0035136475223041,-0.0023602593929094,-0.2051142463432932,-0.1506927467154033,-0.1029034191484592,-6.038407816428166,-3.846758349972759,-2.9650765471838,0.0006115928758817,-0.0008220539321472,-0.0062019189843207,0.068,6.86e-05,9.2e-05,0.0001366,0.01,0.00078263,4
0.067,9.317363252128309e-06,-1.2513408421652887e-05,-0.0001490558743926,0.6796725925925922,-0.0004197530864197,-0.0003490818097274,-0.0004036302347403,-0.004922962988665,-0.0036686161574331,-0.0024653945330885,-0.2112431776792948,-0.1544715134179404,-0.1058635473380854,-6.128931336001558,-3.778766702537069,-2.9601281896262326,0.0006481394110523,-0.0008713499128788,-0.0063869140758715,0.068,6.86e-05,9.2e-05,0.0001366,0.01,0.00078263,4
0.068,1.0003634993062332e-05,-1.3436245953636242e-05,-0.0001556304898554,0.6798577777777773,-0.0004259259259259,-0.0003429089702212,-0.0004010449169951,-0.0051400293268026,-0.0038273321373561,-0.0025734202636052,-0.2174626421890873,-0.1581822556948503,-0.1088050442900892,-6.219464509792513,-3.710742276909957,-2.941496952003756,0.000686271740934,-0.0009228375319833,-0.0065746154628132,0.068,6.86e-05,9.2e-05,0.0001366,0.01,0.00078263,4
0.069,1.0729661728709072e-05,-1.4412827302782314e-05,-0.0001623955117807,0.6800429629629625,-0.000432098765432,-0.000336736130715,-0.0003966226010552,-0.0053633775931896,-0.0039897291552236,-0.0026843022885527,-0.2237726476883776,-0.1618249424395336,-0.1117144698491445,-6.310005499290369,-3.6426867446832825,-2.90942555905529,0.0007260267356467,-0.000976581349146,-0.0067650219252973,0.068,6.86e-05,9.2e-05,0.0001366,0.01,0.00078263,4
0.07,1.1497102318686586e-05,-1.5445474194763102e-05,-0.0001693536439608,0.6802281481481477,-0.0004382716049382,-0.0003305632912088,-0.000390449761549,-0.0055930971974377,-0.0041557408483222,-0.002797993466347,-0.2301732000514621,-0.165399544434154,-0.1145790168641628,-6.400552363084481,-3.5746019946203957,-2.864547015018334,0.0007674405899775,-0.0010326468919807,-0.0069581321801096,0.068,6.86e-05,9.2e-05,0.0001366,0.01,0.00078263,4
0.071,1.230765114024108e-05,-1.653657485178064e-05,-0.0001765075888394,0.6804133333333329,-0.0004444444444444,-0.0003243904517027,-0.0003842769220428,-0.0058292775528382,-0.0043253008597893,-0.0029144466258072,-0.236664303159205,-0.1689060345038577,-0.1173986930920964,-6.491103107742931,-3.5064900697036827,-2.819676227933521,0.0008105488215544,-0.0010911006570175,-0.0071539448786177,0.068,6.86e-05,9.2e-05,0.0001366,0.01,0.00078263,4
0.072,1.3163037409255045e-05,-1.7688584962442096e-05,-0.0001838600474441,0.680598518518518,-0.0004506172839506,-0.0003182176121965,-0.0003781040825366,-0.006072008077443,-0.0044983428379143,-0.0030336145674082,-0.2432459601979559,-0.1723443855338997,-0.1201735062312929,-6.581657038750878,-3.438351030042015,-2.7748131391965543,0.0008553862690139,-0.0011520101106614,-0.0073524586046812,0.068,6.86e-05,9.2e-05,0.0001366,0.01,0.00078263,4
0.073,1.4065024499416806e-05,-1.8904028652566167e-05,-0.0001914137193166,0.6807837037037032,-0.0004567901234567,-0.0003120447726903,-0.0003719312430305,-0.0063213781951266,-0.0046748004354167,-0.0031554500645878,-0.2499181736713401,-0.1757145704875546,-0.1229034639150283,-6.672213473384176,-3.3701849536549435,-2.72995768373537,0.0009019870901617,-0.001215443690124,-0.0075536718725246,0.068,6.86e-05,9.2e-05,0.0001366,0.01,0.00078263,4
0.074,1.5015409259546407e-05,-2.018549945689347e-05,-0.0001991713024412,0.6809688888888884,-0.0004629629629629,-0.0003058719331842,-0.0003657584035243,-0.0065774773366273,-0.0048546073087017,-0.0032799058651061,-0.2566809454120546,-0.179016562424032,-0.1255885737050332,-6.762771740714437,-3.3019919364773704,-2.6851097900049297,0.0009503847601296,-0.0012814708043273,-0.0077575831245709,0.068,6.86e-05,9.2e-05,0.0001366,0.01,0.00078263,4
0.075,1.6016021329661464e-05,-2.153566112070933e-05,-0.0002071354931715,0.6811540740740736,-0.0004679649970303,-0.000299699093678,-0.0003595855640181,-0.0068403778734348,-0.005037697117093,-0.003406934692459,-0.2635172094589929,-0.182250334516396,-0.1282288430850156,-6.836264046938246,-3.233772092363988,-2.640269379982312,0.001000612070115,-0.0013501616638158,-0.0079641907303682,0.068,6.86e-05,9.2e-05,0.0001366,0.01,0.00078263,4
0.076,1.7068722457577588e-05,-2.2957247757844413e-05,-0.0002153089861605,0.6813392592592588,-0.0004685559565874,-0.0002935262541718,-0.000353412724512,-0.0071100878845351,-0.0052240035214457,-0.0035364892499808,-0.2703626649607012,-0.1854158616870757,-0.130824278921341,-6.8454555017083365,-3.1655271706796704,-2.5954358363254317,0.0010527011279161,-0.001421586637135,-0.0081734929889922,0.068,6.86e-05,9.2e-05,0.0001366,0.01,0.00078263,4
0.077,1.8175405816433505e-05,-2.4453063370812867e-05,-0.0002236944742929,0.6815244444444439,-0.0004647812625702,-0.0002873534146656,-0.0003472398850058,-0.007386551819449,-0.0054134601809755,-0.0036685222326454,-0.2771536725430618,-0.1885131253242357,-0.1333748859193332,-6.791007582360582,-3.09726363715997,-2.550606997992228,0.0011066833588559,-0.0014958156129684,-0.008385488132353,0.068,6.86e-05,9.2e-05,0.0001366,0.01,0.00078263,4
0.078,1.9337995322468502e-05,-2.6025981019740556e-05,-0.0002322946486202,0.6817096296296291,-0.000458608423064,-0.0002811805751595,-0.0003410670454996,-0.0076696791799998,-0.0056060007497942,-0.0038029863396477,-0.2838552730845156,-0.1915421137163704,-0.1358806665032044,-6.7016005414537885,-3.02898839213479,-2.5057805838711884,0.001162589506035,-0.0015729176489276,-0.0086001743272883,0.068,6.86e-05,9.2e-05,0.0001366,0.01,0.00078263,4
0.079,2.0558444951918296e-05,-2.7678941990141755e-05,-0.0002411121982956,0.6818948148148143,-0.0004524355835578,-0.0002750077356533,-0.0003348942059934,-0.0079593794795856,-0.0058015588742056,-0.0039398342831603,-0.2904674652414142,-0.1945028196455219,-0.1383416216246246,-6.6121921568986375,-2.960705929151455,-2.46095512142018,0.0012204496294497,-0.0016529609704012,-0.008817549675469,0.068,6.86e-05,9.2e-05,0.0001366,0.01,0.00078263,4
0.08,2.183873805706559e-05,-2.9414954959504147e-05,-0.0002501498105089,0.6820799999999995,-0.0004462627440517,-0.0002688348961471,-0.0003287213664873,-0.0082555622440655,-0.0060000681911636,-0.0040790187917467,-0.2969902470710664,-0.1973952370565606,-0.1407577518605457,-6.52278182965221,-2.892417411038714,-2.41613023592112,0.0012802931051472,-0.0017360129693623,-0.0090376122133089,0.068,6.86e-05,9.2e-05,0.0001366,0.01,0.00078263,4
0.081,2.3180886681481552e-05,-3.123709516265972e-05,-0.0002594101704209,0.6822651851851846,-0.0004400899045455,-0.0002626620566409,-0.0003225485269811,-0.0085581370126233,-0.0062014623267564,-0.00422049261372,-0.3034236160436969,-0.200219361039548,-0.1431290574194797,-6.433368972630476,-2.8241239829874365,-2.3713055589340017,0.0013421486244159,-0.0018221402031555,-0.0092603599119535,0.068,6.86e-05,9.2e-05,0.0001366,0.01,0.00078263,4
0.082,2.458693087449381e-05,-3.3148503555919945e-05,-0.0002688959610982,0.6824503703703698,-0.0004339170650393,-0.0002564892171348,-0.0003163756874749,-0.008867013338609,-0.0064056748947183,-0.0043642085204453,-0.3097675690544115,-0.2029751878121103,-0.1454555381477823,-6.343953010714678,-2.7558267725622745,-2.326480728302613,0.0014060441930122,-0.0019114083932602,-0.0094857906773471,0.068,6.86e-05,9.2e-05,0.0001366,0.01,0.00078263,4
0.083,2.6058938004916328e-05,-3.5152385979953875e-05,-0.0002786098634486,0.682635555555555,-0.0004277442255332,-0.0002503163776286,-0.0003102028479687,-0.0091821007903572,-0.0066126394949678,-0.0045101193095867,-0.3160221024351689,-0.2056627147018227,-0.1477371935359423,-6.254533380757358,-2.6875268897123648,-2.28165538816001,0.0014720071304225,-0.0020038824240339,-0.0097139023503759,0.068,6.86e-05,9.2e-05,0.0001366,0.01,0.00078263,4
0.084,2.7599002074075884e-05,-3.725201232138848e-05,-0.0002885545561557,0.6828207407407402,-0.000421571386027,-0.0002441435381224,-0.0003040300084626,-0.009503308951983,-0.0068222897121736,-0.0046581778082997,-0.322187211966757,-0.2082819401286038,-0.1499740227248761,-6.165109531588049,-2.619225426781072,-2.2368291889337435,0.0015400640691595,-0.0020996263414346,-0.0099446927070881,0.068,6.86e-05,9.2e-05,0.0001366,0.01,0.00078263,4
0.085,2.9209243028169615e-05,-3.9450715673110926e-05,-0.0002987327156147,0.6830059259259254,-0.0004153985465208,-0.0002379706986163,-0.0002978571689564,-0.0098305474241552,-0.0070345591143471,-0.0048083368763672,-0.3282628928907756,-0.2108328635871185,-0.1521660245122269,-6.075680924018622,-2.5509234585147955,-2.1920017873508595,0.0016102409540937,-0.0021987033517224,-0.0101781594589867,0.068,6.86e-05,9.2e-05,0.0001366,0.01,0.00078263,4
0.086,3.08918060699875e-05,-4.175189149325309e-05,-0.0003091470158681,0.6831911111111105,-0.0004092257070146,-0.0002317978591101,-0.0002916843294502,-0.0101637258248471,-0.0072493812514625,-0.0049605494092807,-0.3342491399216238,-0.2133154856291894,-0.1543131973586696,-5.986247030848293,-2.4826220420708567,-2.1471728464426625,0.0016825630418178,-0.0023011758201421,-0.0104143002533974,0.068,6.86e-05,9.2e-05,0.0001366,0.01,0.00078263,4
0.087,3.264886097003319e-05,-4.415899676283899e-05,-0.000319800128542,0.6833762962962957,-0.0004030528675085,-0.0002256250196039,-0.0002855114899441,-0.0105027537900638,-0.0074666896541039,-0.0051147683412659,-0.3401459472584922,-0.2157298078462139,-0.1564155393942188,-5.896807336868309,-2.4143222170244774,-2.102342035549242,0.0017570549000456,-0.0024071052695859,-0.0106531126739075,0.068,6.86e-05,9.2e-05,0.0001366,0.01,0.00078263,4
0.088,3.4482601377076446e-05,-4.667554914207655e-05,-0.0003306947227829,0.6835614814814809,-0.0003968800280023,-0.0002194521800977,-0.0002793386504379,-0.0108475409745478,-0.00768641783214,-0.0052709466482527,-0.3459533085973585,-0.2180758328515888,-0.1584730484245426,-5.80736133886631,-2.3460250053748783,-2.0575090303237777,0.0018337404070432,-0.0025165523792375,-0.0108945942408763,0.068,6.86e-05,9.2e-05,0.0001366,0.01,0.00078263,4
0.089,3.639524412816943e-05,-4.930512612527534e-05,-0.0003418334651949,0.6837466666666661,-0.0003907071884961,-0.0002132793405916,-0.0002731658109317,-0.0111979970524611,-0.007908499273426,-0.0054290373507904,-0.3516712171429889,-0.2203535642631393,-0.1604857219372792,-5.717908545630362,-2.2777314115505063,-2.0126735127366144,0.0019126427510929,-0.0026295769831987,-0.0111387424120158,0.068,6.86e-05,9.2e-05,0.0001366,0.01,0.00078263,4
0.09,3.838902855815929e-05,-5.205136419437274e-05,-0.0003532190197779,0.6839318518518512,-0.0003845343489899,-0.0002071065010854,-0.0002669929714255,-0.011554031718045,-0.008132867442533,-0.0055889935169072,-0.3572996656209415,-0.2225630066855527,-0.1624535571083583,-5.6284484779526816,-2.209442422413403,-1.9678351710791144,0.0019937844299898,-0.0027462380690973,-0.011385554583039,0.068,6.86e-05,9.2e-05,0.0001366,0.01,0.00078263,4
0.091,4.046621580872858e-05,-5.4917957971051263e-05,-0.0003648540478663,0.6841170370370364,-0.0003783615094838,-0.0002009336615792,-0.0002608201319194,-0.0119155546862576,-0.0083594557795044,-0.005750768264914,-0.3628386462895746,-0.2247041656928154,-0.1643765508083256,-5.538980668633051,-2.1411590072627456,-1.9229936999672903,0.0020771872505692,-0.0028665937766785,-0.0116350280883771,0.068,6.86e-05,9.2e-05,0.0001366,0.01,0.00078263,4
0.092,4.262908813699472e-05,-5.790865936743051e-05,-0.0003767412080683,0.6843022222222216,-0.0003721886699776,-0.000194760822073,-0.0002546472924132,-0.0122824756933875,-0.0085881976986403,-0.0059143147661542,-0.3682881509520565,-0.226777047810653,-0.1662546996086709,-5.44950466248192,-2.072882117837563,-1.8781488003452207,0.0021628723282661,-0.0029907013963792,-0.0118871602019624,0.068,6.86e-05,9.2e-05,0.0001366,0.01,0.00078263,4
0.093,4.487994822369934e-05,-6.102727673531751e-05,-0.0003888831562064,0.6844874074074068,-0.0003660158304714,-0.0001885879825669,-0.000248474452907,-0.0126547044976467,-0.0088190265873091,-0.0060795862476966,-0.3736481709683797,-0.2287816604989716,-0.1680879997881591,-5.360020016323223,-2.004612688318653,-1.8333001794882455,0.0022508600867046,-0.0031186173678869,-0.0121419481380762,0.068,6.86e-05,9.2e-05,0.0001366,0.01,0.00078263,4
0.094,4.722111848101786e-05,-6.427767401399998e-05,-0.0004012825452586,0.6846725925925919,-0.0003598429909652,-0.0001824151430607,-0.0002423016134008,-0.0130321508797392,-0.009051875804786,-0.0062465359949745,-0.3789186972673766,-0.2307180121343013,-0.1698764473391651,-5.270526298996877,-1.9363516353297132,-1.7884475510059552,0.0023411702573185,-0.0032503972786824,-0.0123993890522617,0.068,6.86e-05,9.2e-05,0.0001366,0.01,0.00078263,4
0.095,4.9654940360019056e-05,-6.766376987656744e-05,-0.0004139420253009,0.6848577777777771,-0.0003536701514591,-0.0001762423035545,-0.0002361287738947,-0.0134147246434085,-0.0092866786811196,-0.0064151173543687,-0.3840997203587376,-0.232586111992239,-0.17162003797401,-5.181023091361007,-1.8680998579377048,-1.743590634844964,0.0024338218790011,-0.0033860958625674,-0.0126594800422988,0.068,6.86e-05,9.2e-05,0.0001366,0.01,0.00078263,4
0.096,5.218377365780418e-05,-7.118953687474557e-05,-0.0004268642434502,0.6850429629629623,-0.0003474973119529,-0.0001700694640484,-0.0002299559343885,-0.0138023356159619,-0.0095233685160252,-0.0065852837357358,-0.3891912303450315,-0.2343859702298915,-0.1733187671313015,-5.091509986293877,-1.7998582376524648,-1.698729157291481,0.0025288332977851,-0.0035257669981781,-0.0129222181492414,0.068,6.86e-05,9.2e-05,0.0001366,0.01,0.00078263,4
0.097,5.480999582435445e-05,-7.485900058222998e-05,-0.0004400518438087,0.6852281481481475,-0.0003413244724467,-0.0001638966245422,-0.0002237830948823,-0.0141948936487728,-0.0097618785778061,-0.0067569886148813,-0.394193216933727,-0.2361175978683171,-0.1749726299822752,-5.001986588695541,-1.7316276384255855,-1.65386285097367,0.0026262221665502,-0.0036694637074844,-0.0131876003585149,0.068,6.86e-05,9.2e-05,0.0001366,0.01,0.00078263,4
0.098,5.753600126911548e-05,-7.867623873650576e-05,-0.0004535074674097,0.6854133333333327,-0.0003351516329406,-0.000157723785036,-0.0002176102553762,-0.0145923086177609,-0.0100021421023017,-0.0069301855359778,-0.3991056694492162,-0.2377810067749657,-0.176581621437139,-4.91245251548921,-1.6634089066485769,-1.6089914548638131,0.002726005444761,-0.0038172381542757,-0.0134556236010732,0.068,6.86e-05,9.2e-05,0.0001366,0.01,0.00078263,4
0.099,6.036420066734666e-05,-8.264538037914007e-05,-0.0004672337521644,0.6855985185185178,-0.0003289787934344,-0.0001515509455298,-0.00021143741587,-0.0149944904238496,-0.0102440922918626,-0.0071048281139277,-0.4039285768448386,-0.239376209646116,-0.1781457361514193,-4.822907395622354,-1.5952028711503283,-1.5641147142802698,0.0028281993982311,-0.0039691416426343,-0.0137262847546136,0.068,6.86e-05,9.2e-05,0.0001366,0.01,0.00078263,4
0.1,6.329702026626302e-05,-8.677060499453526e-05,-0.0004812333328092,0.685783703703703,-0.0003228059539282,-0.0001453781060237,-0.0002052645763638,-0.0154013489934022,-0.0104876623143536,-0.0072808700366715,-0.4086619277149061,-0.2409032199893099,-0.1796649685323085,-4.733350870067538,-1.5270103431938902,-1.519232380889241,0.0029328195989163,-0.0041252246153951,-0.0139995806448494,0.068,6.86e-05,9.2e-05,0.0001366,0.01,0.00078263,4
0.101,6.633690119099673e-05,-9.105614164713076e-05,-0.000495508840856,0.6859688888888882,-0.000316633114422,-0.0001392052665175,-0.0001990917368576,-0.0158127942786355,-0.0107327853021832,-0.0074582650674407,-0.4133057103067291,-0.2423620521057825,-0.1811393127450148,-4.643782591822976,-1.4588321164725877,-1.474344212706337,0.0030398809247337,-0.0042855366525955,-0.0142755080468376,0.068,6.86e-05,9.2e-05,0.0001366,0.01,0.00078263,4
0.102,6.948629875040476e-05,-9.55062681170424e-05,-0.0005100629045424,0.6861540740740734,-0.0003104602749159,-0.0001330324270113,-0.0001929188973515,-0.0162287362580114,-0.0109793943513602,-0.0076369670469564,-0.417859912532642,-0.2437527210728879,-0.1825687627191128,-4.554202225912847,-1.3906689671054873,-1.429449974097956,0.003149397559408,-0.0044501264699116,-0.0145540636863617,0.068,6.86e-05,9.2e-05,0.0001366,0.01,0.00078263,4
0.103,7.2747681742749e-05,-0.0001001253100341,-0.0005248981487838,0.6863392592592585,-0.0003042874354097,-0.0001268595875051,-0.0001867460578453,-0.0166490849366074,-0.0112274225205777,-0.0078169298955721,-0.4223245219820293,-0.2450752427265202,-0.1839533121548953,-4.464609449387345,-1.3225216536322326,-1.3845494357824677,0.0032613829923442,-0.0046190419170858,-0.0148352442413679,0.068,6.86e-05,9.2e-05,0.0001366,0.01,0.00078263,4
0.104,7.612353176127427e-05,-0.0001049176400104,-0.0005400171951272,0.6865244444444437,-0.0002981145959035,-0.000120686747999,-0.0001805732183391,-0.0170737503464651,-0.0114768028303235,-0.007998107615363,-0.4266995259333518,-0.2463296336435274,-0.1852929545297265,-4.3750039513224825,-1.2543909170072651,-1.339642374831215,0.0033758500185252,-0.004792329976343,-0.0151190463434533,0.068,6.86e-05,9.2e-05,0.0001366,0.01,0.00078263,4
0.105,7.961634249970964e-05,-0.0001098876767712,-0.0005554226617066,0.6867096296296289,-0.0002919417563973,-0.0001145139084928,-0.0001744003788329,-0.0175026425469166,-0.0117274682620172,-0.0081804542921593,-0.4309849113661715,-0.2475159111241209,-0.1865876831043958,-4.285385432819642,-1.1862774805934493,-1.294728574669329,0.0034928107384353,-0.0049700367607967,-0.0154054665794054,0.068,6.86e-05,9.2e-05,0.0001366,0.01,0.00078263,4
0.106,8.32286190577177e-05,-0.0001150398842841,-0.0005711171631994,0.6868948148148141,-0.0002857689168912,-0.0001083410689866,-0.0001682275393268,-0.0179356716248903,-0.0119793517571746,-0.0083639240975257,-0.4351806649731764,-0.248634093174276,-0.1878374909294722,-4.195753607004894,-1.1181820501551172,-1.24980782507636,0.003612276558008,-0.0051522075128475,-0.0156945014927915,0.068,6.86e-05,9.2e-05,0.0001366,0.01,0.00078263,4
0.107,8.696287724631582e-05,-0.0001203787708866,-0.000587103310785,0.6870799999999992,-0.000279596077385,-0.0001021682294805,-0.0001620546998206,-0.0183727476951951,-0.0122323862165981,-0.0085484712906859,-0.4392867731722045,-0.2496841984881266,-0.1890423708516589,-4.106108199028078,-1.0501053138505505,-1.2048799221867337,0.0037342581885981,-0.0053388866025715,-0.0159861475855967,0.068,6.86e-05,9.2e-05,0.0001366,0.01,0.00078263,4
0.108,9.082164289329348e-05,-0.0001259088884127,-0.0006033837121049,0.6872651851851844,-0.0002734232378788,-9.599538997432928e-05,-0.0001558818603144,-0.0188137809007835,-0.0124865044995938,-0.0087340502203925,-0.4433032221182661,-0.2506662464303505,-0.190202315520149,-4.016448946061645,-0.9820479422239172,-1.159944668490025,0.0038587656469776,-0.0055301175261009,-0.0162804013199091,0.068,6.86e-05,9.2e-05,0.0001366,0.01,0.00078263,4
0.109,9.480745114864852e-05,-0.0001316348313167,-0.0006199609712246,0.6874503703703696,-0.0002672503983727,-8.982255046815644e-05,-0.0001497090208083,-0.019258681412993,-0.0127416394232151,-0.0089206153267427,-0.4472299977155654,-0.2515802570185472,-0.19131731739298,-3.9267755972992746,-0.9140105881966816,-1.1150018728310624,0.003985808255355,-0.0057259429039978,-0.0165772591196517,0.068,6.86e-05,9.2e-05,0.0001366,0.01,0.00078263,4
0.11,9.892284579006528e-05,-0.0001375612357964,-0.0006368376885969,0.6876355555555548,-0.0002610775588665,-8.36497109619836e-05,-0.0001435361813021,-0.0197073594317679,-0.0129977237615321,-0.009108121142939,-0.4510670856295196,-0.2524262509056057,-0.1923873687433899,-3.837087913954278,-0.845993887058501,-1.0700513504098557,0.0041153946414167,-0.0059264044796202,-0.0168767173723591,0.068,6.86e-05,9.2e-05,0.0001366,0.01,0.00078263,4
0.111,0.0001031703785284,-0.0001436927789138,-0.0006540164610279,0.68782074074074,-0.0002549047193603,-7.747687145581077e-05,-0.0001373633417959,-0.0201597251858593,-0.0132546902449277,-0.0092965222969961,-0.4548144712987774,-0.2532042493620633,-0.1934124616661713,-3.747385669257767,-0.7779984564576294,-1.0250929227813588,0.0042475327383916,-0.0061315431174815,-0.0171787724309977,0.068,6.86e-05,9.2e-05,0.0001366,0.01,0.00078263,4
0.112,0.0001075526083135,-0.0001500341777154,-0.0006714998816438,0.6880059259259251,-0.0002487318798541,-7.130403194963793e-05,-0.0001311905022897,-0.0206156889330048,-0.0135124715594194,-0.0094857735133927,-0.458472139947234,-0.2539142742584542,-0.1943925880840263,-3.657668648456623,-0.7100248963908466,-0.9801264178550636,0.0043822297851363,-0.0063413988016044,-0.0174834206158295,0.068,6.86e-05,9.2e-05,0.0001366,0.01,0.00078263,4
0.113,0.0001120721006398,-0.0001565901883493,-0.0006892905398601,0.6881911111111103,-0.000242559040348,-6.513119244346509e-05,-0.0001250176627836,-0.021075160960088,-0.0137710003460066,-0.0096758296146701,-0.4620400765960453,-0.2545563480476471,-0.1953277397539208,-3.5679366488112496,-0.6420737891929248,-0.935151669894429,0.0045194923262427,-0.0065560106338694,-0.0177906582163162,0.068,6.86e-05,9.2e-05,0.0001366,0.01,0.00078263,4
0.114,0.000116731426852,-0.0001633656051817,-0.0007073910213531,0.6883762962962955,-0.0002363862008418,-5.895835293729225e-05,-0.0001188448232774,-0.0215380515832774,-0.0140302092000445,-0.0098666455229754,-0.4655182660756384,-0.2551304937471727,-0.1962179082734369,-3.478189479593123,-0.5741456995256559,-0.8901685195161506,0.0046593262121654,-0.0067754168323579,-0.0181004814930637,0.068,6.86e-05,9.2e-05,0.0001366,0.01,0.00078263,4
0.115,0.0001215331634513,-0.0001703652599114,-0.000725803908033,0.6885614814814807,-0.0002302133613356,-5.2785513431119415e-05,-0.0001126719837712,-0.0220042711481455,-0.0142900306706427,-0.0100581762615512,-0.4689066930377205,-0.2556367349215391,-0.1970630850871262,-3.388426962082139,-0.5062411743664518,-0.8451768136892698,0.0048017365993697,-0.006999654729691,-0.0184128866798064,0.068,6.86e-05,9.2e-05,0.0001366,0.01,0.00078263,4
0.116,0.0001264798914018,-0.0001775940206827,-0.0007445317780184,0.6887466666666658,-0.0002240405218294,-4.6612673924946576e-05,-0.000106499144265,-0.0224737300297674,-0.0145503972600897,-0.0102503769561711,-0.4722053419672843,-0.2560750956645357,-0.1978632614928603,-3.298648929563771,-0.4383607429965385,-0.8001764057341263,0.0049467279504993,-0.0072287607713649,-0.0187278699854282,0.068,6.86e-05,9.2e-05,0.0001366,0.01,0.00078263,4
0.117,0.0001315741954364,-0.0001850567911968,-0.0007635772056144,0.688931851851851,-0.0002178676823233,-4.043983441877374e-05,-0.0001003263047589,-0.0229463386328007,-0.0148112414233026,-0.0104432028365209,-0.4754141971946103,-0.2564456005815244,-0.1986184286481814,-3.208855227326031,-0.3705049169887592,-0.7551671553211586,0.0050943040345628,-0.0074627705140826,-0.0190454275960204,0.068,6.86e-05,9.2e-05,0.0001366,0.01,0.00078263,4
0.118,0.0001368186633635,-0.0001927585098209,-0.0007829427612914,0.6891170370370362,-0.0002116948428171,-3.42669949126009e-05,-9.415346525274614e-05,-0.0234220073915442,-0.0150724955673017,-0.0106366092375261,-0.4785332429072666,-0.2567482747717194,-0.199328577576651,-3.11904571265625,-0.3026741901950048,-0.7101489284695514,0.0052444679271394,-0.0077017186240823,-0.0193655556769748,0.068,6.86e-05,9.2e-05,0.0001366,0.01,0.00078263,4
0.119,0.0001422158853741,-0.0002007041486964,-0.0008026310116665,0.6893022222222214,-0.0002055220033109,-2.809415540642806e-05,-8.79806257465733e-05,-0.0239006467699789,-0.0153340920507104,-0.0108305516006255,-0.4815624631621042,-0.2569831438104527,-0.1999936991741967,-3.0292202548376688,-0.2348690387332873,-0.6651215975457353,0.0053972220106023,-0.0079456388754644,-0.0196882503751113,0.068,6.86e-05,9.2e-05,0.0001366,0.01,0.00078263,4
0.12,0.0001477684533485,-0.0002088987128449,-0.0008226445194873,0.6894874074074065,-0.0001993491638048,-2.1921315900255223e-05,-8.180778624040046e-05,-0.0243821672617884,-0.0155959631832798,-0.0110249854749905,-0.4845018418972501,-0.2571502337314272,-0.2006137842154584,-2.939378735145864,-0.1670899209744759,-0.620085041261741,0.0055525679743595,-0.008194564148516,-0.0200135078208373,0.068,6.86e-05,9.2e-05,0.0001366,0.01,0.00078263,4
0.121,0.0001534789601636,-0.0002173472392729,-0.0008429858436177,0.6896725925925917,-0.0001931763242986,-1.5748476394082385e-05,-7.563494673422762e-05,-0.0248664793903609,-0.0158580412254374,-0.0112198665186908,-0.4873513629440951,-0.2572495710089559,-0.2011888233601318,-2.8495210468449903,-0.099337277528711,-0.5750391446734096,0.005710506815112,-0.0084485264280339,-0.0203413241303396,0.068,6.86e-05,9.2e-05,0.0001366,0.01,0.00078263,4
0.122,0.0001593499990007,-0.0002260547960746,-0.0008636575390255,0.6898577777777769,-0.0001870034847924,-9.575636887909546e-06,-6.946210722805478e-05,-0.0253534937087721,-0.0161202583878612,-0.0114151504998067,-0.490111010039279,-0.2572811825401874,-0.2017188071593103,-2.7596470951838645,-0.0316115312315148,-0.5299837991784622,0.0058710388371285,-0.0087075568016477,-0.0206716954078062,0.068,6.86e-05,9.2e-05,0.0001366,0.01,0.00078263,4
0.123,0.0001653841626533,-0.0002350264815327,-0.0008846621567731,0.6900429629629621,-0.0001808306452862,-3.4027973817367077e-06,-6.328926772188195e-05,-0.0258431207997497,-0.0163825468310773,-0.0116107932974873,-0.4927807668366709,-0.257245095627317,-0.2022037260618247,-2.6697567973918805,0.0360869128703861,-0.4849189025144328,0.0060341636525355,-0.0089716854581417,-0.021004617747677,0.068,6.86e-05,9.2e-05,0.0001366,0.01,0.00078263,4
0.124,0.0001715840428349,-0.0002442674232185,-0.0009060022440101,0.6902281481481473,-0.0001746578057801,2.770042124436132e-06,-5.711642821570911e-05,-0.0263352712756189,-0.0166448386650819,-0.0118067509029549,-0.4953606169193457,-0.2571413379597835,-0.2026435704205812,-2.5798500826747723,0.103757667533507,-0.4398443587564643,0.0061998801816231,-0.0092409416857769,-0.0213400872369232,0.068,6.86e-05,9.2e-05,0.0001366,0.01,0.00078263,4
0.125,0.000177952229488,-0.0002537827770891,-0.0009276803439674,0.6904133333333324,-0.0001684849662739,8.942881630608972e-06,-5.094358870953627e-05,-0.0268298557782298,-0.0169070659489872,-0.0120029794204565,-0.4978505438115559,-0.2569699375964512,-0.2030383304988962,-2.489926892210219,0.171400363332303,-0.394760078314973,0.006368186653166,-0.0095153538706149,-0.0216780999573516,0.068,6.86e-05,9.2e-05,0.0001366,0.01,0.00078263,4
0.126,0.0001844913100928,-0.0002635777265839,-0.0009496989959554,0.6905985185185176,-0.0001623121267677,1.511572113678181e-05,-4.477074920336343e-05,-0.0273267849788671,-0.017169160690691,-0.0121994350681611,-0.5002505309906993,-0.2567309229477771,-0.2033879964768293,-2.3999871791433085,0.2390146486741031,-0.3496659779331831,0.0065390806047578,-0.0097949494948411,-0.0220186519879362,0.068,6.86e-05,9.2e-05,0.0001366,0.01,0.00078263,4
0.127,0.000191203868976,-0.000273657481719,-0.0009720607353625,0.6907837037037028,-0.0001561392872615,2.128856064295465e-05,-3.859790969719059e-05,-0.027825969578141,-0.0174310548465699,-0.0123960741790037,-0.5025605618992811,-0.2564243227579628,-0.2036925584575139,-2.3100309085818487,0.3066001898142619,-0.3045619806845341,0.0067125588831598,-0.0100797551350914,-0.0223617394071724,0.068,6.86e-05,9.2e-05,0.0001366,0.01,0.00078263,4
0.128,0.0001980924866206,-0.0002840272781798,-0.000994768093658,0.690968888888888,-0.0001499664477554,2.7461400149127487e-05,-3.2425070191017754e-05,-0.0283273203058614,-0.0176926803211957,-0.0125928532014766,-0.5047806199568726,-0.2560501660870913,-0.2039520064734838,-2.220058057591551,0.3741566708715108,-0.2594480159699637,0.0068886176446627,-0.0103697964607794,-0.0227073582954549,0.068,6.86e-05,9.2e-05,0.0001366,0.01,0.00078263,4
0.129,0.0002051597389761,-0.0002946923764122,-0.0010178235983955,0.6911540740740731,-0.0001437936082492,3.363423965530033e-05,-2.625223068484492e-05,-0.0288307479208935,-0.0179539689670751,-0.0127897287003662,-0.5069106885720637,-0.2556084822932478,-0.2041663304929989,-2.1300686151910715,0.4416837938434934,-0.2143240195150693,0.0070672523554604,-0.0106650982324277,-0.0230555047374765,0.068,6.86e-05,9.2e-05,0.0001366,0.01,0.00078263,4
0.13,0.0002124081967681,-0.0003056580607122,-0.0010412297732201,0.6913392592592583,-0.000137620768743,3.980707916147317e-05,-2.007939117867208e-05,-0.0293361632109969,-0.0182148525844127,-0.0129866573574371,-0.5089507511544106,-0.2550993010146253,-0.2043355204263661,-2.040062582346933,0.5091812786224665,-0.1691899333671502,0.0072484577920363,-0.010965684300001,-0.0234061748246474,0.068,6.86e-05,9.2e-05,0.0001366,0.01,0.00078263,4
0.131,0.0002198404248097,-0.0003169296383135,-0.0010649891378776,0.6915244444444435,-0.0001314479292369,4.5979918667646005e-05,-1.390655167249924e-05,-0.0298434769926476,-0.0184752629208959,-0.0131835959720635,-0.5109007911263789,-0.2545226521516142,-0.2044595661322582,-1.950039971968314,0.57664886301115,-0.1240457058921349,0.0074322280415607,-0.0112715776012434,-0.0237593646575343,0.068,6.86e-05,9.2e-05,0.0001366,0.01,0.00078263,4
0.132,0.000227458981312,-0.0003285124384735,-0.001089104208226,0.6917096296296287,-0.0001252750897307,5.215275817381884e-05,-7.733712166326401e-06,-0.030352600110842,-0.0187351316715033,-0.0133805014618064,-0.5127607919352806,-0.2538785658488754,-0.2045384574240296,-1.860000808901728,0.6440863027387074,-0.0788912917713934,0.0076185565022991,-0.0115828001600197,-0.0241150703483156,0.068,6.86e-05,9.2e-05,0.0001366,0.01,0.00078263,4
0.133,0.000235266417196,-0.0003404118115582,-0.0011135774962492,0.6918948148148139,-0.0001191022502245,5.832559767999168e-05,-1.560872660153562e-06,-0.0308634434388856,-0.0189943904783348,-0.0135773308629384,-0.5145307370652061,-0.2531670724773986,-0.204572184076028,-1.7699451299255833,0.711493371476841,-0.0337266519984409,0.00780743588403,-0.0118993730846611,-0.0244732880232553,0.068,6.86e-05,9.2e-05,0.0001366,0.01,0.00078263,4
0.134,0.0002432652754045,-0.0003526331281245,-0.0011384115100744,0.692079999999999,-0.0001129294107183,6.449843718616453e-05,4.611966846019277e-06,-0.0313759178781643,-0.0192529709304646,-0.0137740413309152,-0.5162106100489507,-0.2523882026165426,-0.2045607358299035,-1.6798729837446418,0.778869860855985,0.0114482461244675,0.0079988582084735,-0.0122213165663159,-0.0248340138251896,0.068,6.86e-05,9.2e-05,0.0001366,0.01,0.00078263,4
