timestamp,thrust,z,torque_x,torque_y,torque_z,roll,pitch,yaw,p,q,r,vx,vy,vz,mass,inertia_xx,inertia_yy,inertia_zz,trajectory_id
0.0,1.3470707300687943,0.0,0.0177263150292325,-0.0086602827536505,0.0086531953216689,0.0,0.0,0.0,0.0,0.0,0.0,0.0,0.0,0.0,0.068,6.86e-05,9.2e-05,0.0001366,0.0
0.01,1.3036150932312012,-0.040641900151968,-0.005880347918719053,0.0005836457712575793,0.0018371189944446087,0.0004391195543576032,-0.00020439273794181645,0.00020661178859882057,0.23567810654640198,-0.09380665421485901,0.06399711966514587,0.0,0.0,0.21753738820552826,0.068,6.86e-05,9.2e-05,0.0001366,0.0
0.02,1.371882677078247,-0.04202854260802269,0.0027384329587221146,-5.970085840090178e-05,0.0004534251638688147,-0.0007860389887355268,0.0007363026379607618,-0.0003385918971616775,0.14403145015239716,-0.08693794906139374,0.08207529783248901,0.0,0.0,0.36569714546203613,0.068,6.86e-05,9.2e-05,0.0001366,0.0
0.03,1.4153612852096558,0.35443103313446045,-0.0012630762066692114,1.592866647115443e-05,0.0001380660687573254,-0.001031133346259594,0.0002535124949645251,-0.001620814437046647,0.1919841468334198,-0.08780872076749802,0.0859808400273323,0.0,0.0,0.08040951937437057,0.068,6.86e-05,9.2e-05,0.0001366,0.0
0.04,1.3017159700393677,-1.4038478136062622,0.0005788105190731585,-1.5687830455135554e-05,4.980158701073378e-05,0.0021791430190205574,-0.0036010006442666054,0.00018550429376773536,0.1675209254026413,-0.08518240600824356,0.08428540825843811,0.0,0.0,-0.3774954080581665,0.068,6.86e-05,9.2e-05,0.0001366,0.0
0.05,1.3700469732284546,-0.8304587602615356,-0.00027663406217470765,-4.998055374016985e-06,2.1710980945499614e-05,0.002185833640396595,0.00014081501285545528,0.001170858507975936,0.17457254230976105,-0.08734043687582016,0.08624709397554398,0.0,0.0,0.03379319980740547,0.068,6.86e-05,9.2e-05,0.0001366,0.0
0.06,1.310723066329956,0.035711172968149185,0.00010975442273775116,-8.772493856668007e-06,1.4203385035216343e-05,0.0009023668826557696,-0.0011475766077637672,7.64203432481736e-05,0.17176733911037445,-0.08615519106388092,0.0865023285150528,0.0,0.0,-0.016504298895597458,0.068,6.86e-05,9.2e-05,0.0001366,0.0
0.07,1.3305742740631104,-0.08485328406095505,-2.787854100461118e-05,-7.227257810882293e-06,1.0351493074267637e-05,0.004099023528397083,-0.0015148604288697243,0.001971252029761672,0.17046983540058136,-0.08557606488466263,0.08545277267694473,0.0,0.0,0.029550541192293167,0.068,6.86e-05,9.2e-05,0.0001366,0.0
0.08,1.3231145143508911,-0.0052357870154082775,2.3166267055785283e-05,-7.717591870459728e-06,1.0383389053458814e-05,0.005348351784050465,-0.002557390369474888,0.0025100482162088156,0.16867485642433167,-0.08454164862632751,0.08467521518468857,0.0,0.0,-0.09391868859529495,0.068,6.86e-05,9.2e-05,0.0001366,0.0
0.09,1.326595664024353,-0.04946434125304222,4.899321538687218e-06,-7.434397048200481e-06,9.838297046371736e-06,0.007125732488930225,-0.0033207470551133156,0.003439426189288497,0.1671755164861679,-0.08374881744384766,0.08386628329753876,0.0,0.0,-0.1812199503183365,0.068,6.86e-05,9.2e-05,0.0001366,0.0
0.1,1.325972080230713,-0.05191623792052269,1.1780698514485266e-05,-7.4496256274869666e-06,9.681276424089447e-06,0.008516249246895313,-0.004095838405191898,0.004125527571886778,0.16574573516845703,-0.0829678475856781,0.08315395563840866,0.0,0.0,-0.27871572971343994,0.068,6.86e-05,9.2e-05,0.0001366,0.0
0.11,1.3267238140106201,-0.06990157812833786,9.333004527434241e-06,-7.348930012085475e-06,9.467170457355678e-06,0.009904024191200733,-0.004794635809957981,0.004825621377676725,0.16442593932151794,-0.08226215094327927,0.08247880637645721,0.0,0.0,-0.3647729158401489,0.068,6.86e-05,9.2e-05,0.0001366,0.0
0.12,1.3268401622772217,-0.08049022406339645,1.0280941751261707e-05,-7.293579983524978e-06,9.325363862444647e-06,0.0111730070784688,-0.00545980129390955,0.005459002684801817,0.1631789356470108,-0.08159540593624115,0.08184869587421417,0.0,0.0,-0.4472517967224121,0.068,6.86e-05,9.2e-05,0.0001366,0.0
0.13,1.3270986080169678,-0.09268295019865036,9.924874575517606e-06,-7.221852683869656e-06,9.197194231091999e-06,0.012388301081955433,-0.006087028421461582,0.006066821049898863,0.1619972139596939,-0.08096852153539658,0.08125052601099014,0.0,0.0,-0.5243918895721436,0.068,6.86e-05,9.2e-05,0.0001366,0.0
0.14,1.3272265195846558,-0.10324680060148239,1.0025029041571543e-05,-7.157859727158211e-06,9.094813322008122e-06,0.013542038388550282,-0.006686137057840824,0.0066422331146895885,0.16086837649345398,-0.08037203550338745,0.08068089187145233,0.0,0.0,-0.59794020652771,0.068,6.86e-05,9.2e-05,0.0001366,0.0
0.15,1.3273409605026245,-0.11365043371915817,9.930049600370694e-06,-7.092396117513999e-06,9.007374501379672e-06,0.014650796540081501,-0.007260547019541264,0.007194794248789549,0.15978406369686127,-0.07980174571275711,0.08013439178466797,0.0,0.0,-0.6682111024856567,0.068,6.86e-05,9.2e-05,0.0001366,0.0
0.16,1.3274086713790894,-0.12350379675626755,9.890251931210514e-06,-7.029040716588497e-06,8.933900971896946e-06,0.015719613060355186,-0.007814736105501652,0.007726653944700956,0.15873678028583527,-0.07925298064947128,0.07960748672485352,0.0,0.0,-0.7358911037445068,0.068,6.86e-05,9.2e-05,0.0001366,0.0
0.17,1.3274509906768799,-0.13310158252716064,9.815073099161964e-06,-6.966357886994956e-06,8.870966667018365e-06,0.016756033524870872,-0.008351952768862247,0.008241858333349228,0.15772031247615814,-0.07872220128774643,0.07909682393074036,0.0,0.0,-0.8013967275619507,0.068,6.86e-05,9.2e-05,0.0001366,0.0
0.18,1.3274667263031006,-0.14245426654815674,9.742453585204203e-06,-6.904819201736245e-06,8.816886293061543e-06,0.01776525191962719,-0.008875125087797642,0.00874296948313713,0.15672937035560608,-0.07820627838373184,0.07859969884157181,0.0,0.0,-0.8651450872421265,0.068,6.86e-05,9.2e-05,0.0001366,0.0
0.19,1.3274619579315186,-0.1516658067703247,9.660608156991657e-06,-6.844152721896535e-06,8.769861779001076e-06,0.0187522079795599,-0.009386715479195118,0.009232524782419205,0.1557592898607254,-0.077702596783638,0.07811371237039566,0.0,0.0,-0.9274671077728271,0.068,6.86e-05,9.2e-05,0.0001366,0.0
0.2,1.3274388313293457,-0.16077911853790283,9.575923286320176e-06,-6.784372999391053e-06,8.728661669010762e-06,0.019720977172255516,-0.009888877160847187,0.009712591767311096,0.15480616688728333,-0.07720889151096344,0.07763683050870895,0.0,0.0,-0.9886581897735596,0.068,6.86e-05,9.2e-05,0.0001366,0.0
0.21,1.3274003267288208,-0.16986286640167236,9.487777788308449e-06,-6.7253681663714815e-06,8.692139090271667e-06,0.02067519538104534,-0.01038349885493517,0.010185010731220245,0.1538664549589157,-0.07672315090894699,0.07716726511716843,0.0,0.0,-1.0489778518676758,0.068,6.86e-05,9.2e-05,0.0001366,0.0
0.22,1.3273483514785767,-0.1789647340774536,9.39786150411237e-06,-6.667099569312995e-06,8.659510058350861e-06,0.021618014201521873,-0.010872197337448597,0.010651376098394394,0.1529371589422226,-0.07624366134405136,0.07670345157384872,0.0,0.0,-1.1086512804031372,0.068,6.86e-05,9.2e-05,0.0001366,0.0
0.23,1.3272849321365356,-0.18812954425811768,9.306734682468232e-06,-6.609501724597067e-06,8.62985325511545e-06,0.022552190348505974,-0.011356418021023273,0.011113066226243973,0.1520155668258667,-0.07576891779899597,0.07624403387308121,0.0,0.0,-1.1678804159164429,0.068,6.86e-05,9.2e-05,0.0001366,0.0
0.24,1.3272117376327515,-0.19740498065948486,9.215384125127457e-06,-6.552523245773045e-06,8.60256204759935e-06,0.023480167612433434,-0.011837446130812168,0.011571329087018967,0.1510992795228958,-0.07529754936695099,0.07578779011964798,0.0,0.0,-1.226844310760498,0.068,6.86e-05,9.2e-05,0.0001366,0.0
0.25,1.3271300792694092,-0.20683109760284424,9.124257303483319e-06,-6.496144123957492e-06,8.577093467465602e-06,0.024404121562838554,-0.012316391803324223,0.012027252465486526,0.1501862108707428,-0.0748283863067627,0.07533366233110428,0.0,0.0,-1.2857052087783813,0.068,6.86e-05,9.2e-05,0.0001366,0.0
0.26,1.3270410299301147,-0.21645081043243408,9.034396498464048e-06,-6.440307970478898e-06,8.552932740713004e-06,0.025325944647192955,-0.012794260866940022,0.012481778860092163,0.14927451312541962,-0.07436037808656693,0.0748807042837143,0.0,0.0,-1.3446098566055298,0.068,6.86e-05,9.2e-05,0.0001366,0.0
0.27,1.3269460201263428,-0.22630226612091064,8.945745321398135e-06,-6.384997050190577e-06,8.529541446478106e-06,0.02624729834496975,-0.013271917589008808,0.012935757637023926,0.14836251735687256,-0.07389258593320847,0.07442810386419296,0.0,0.0,-1.403690218925476,0.068,6.86e-05,9.2e-05,0.0001366,0.0
0.28,1.3268460035324097,-0.2364264726638794,8.859541594574694e-06,-6.330199994408758e-06,8.506523954565637e-06,0.02716965042054653,-0.013750129379332066,0.01338990405201912,0.1474488228559494,-0.07342419773340225,0.07397513091564178,0.0,0.0,-1.4630666971206665,0.068,6.86e-05,9.2e-05,0.0001366,0.0
0.29,1.326742172241211,-0.24686062335968018,8.775812602834776e-06,-6.275913165154634e-06,8.483541932946537e-06,0.028094260022044182,-0.014229563064873219,0.013844858855009079,0.14653217792510986,-0.07295449823141098,0.07352117449045181,0.0,0.0,-1.5228477716445923,0.068,6.86e-05,9.2e-05,0.0001366,0.0
0.3,1.3266351222991943,-0.2576485872268677,8.695120413904078e-06,-6.222130195965292e-06,8.460211574856658e-06,0.029022229835391045,-0.01471079234033823,0.01430116593837738,0.1456114649772644,-0.07248284667730331,0.07306569069623947,0.0,0.0,-1.5831347703933716,0.068,6.86e-05,9.2e-05,0.0001366,0.0
0.31,1.3265260457992554,-0.2688237428665161,8.618226274847984e-06,-6.168854724819539e-06,8.436160896962974e-06,0.029954461380839348,-0.015194308944046497,0.014759272336959839,0.14468583464622498,-0.07200873643159866,0.07260823994874954,0.0,0.0,-1.6440141201019287,0.068,6.86e-05,9.2e-05,0.0001366,0.0
0.32,1.326415777206421,-0.28042900562286377,8.544846423319541e-06,-6.116085842222674e-06,8.411154340137728e-06,0.030891714617609978,-0.015680504962801933,0.015219554305076599,0.1437544971704483,-0.07153169065713882,0.07214845716953278,0.0,0.0,-1.7055684328079224,0.068,6.86e-05,9.2e-05,0.0001366,0.0
0.33,1.3263051509857178,-0.2925044298171997,8.475883078062907e-06,-6.063855835236609e-06,8.384842658415437e-06,0.031834568828344345,-0.016169706359505653,0.01568230614066124,0.1428169161081314,-0.07105133682489395,0.07168605923652649,0.0,0.0,-1.767869234085083,0.068,6.86e-05,9.2e-05,0.0001366,0.0
0.34,1.3261948823928833,-0.3050881624221802,8.41156088426942e-06,-6.0121528804302216e-06,8.356993021152448e-06,0.03278350457549095,-0.016662148758769035,0.016147736459970474,0.1418725997209549,-0.07056741416454315,0.07122082263231277,0.0,0.0,-1.8309794664382935,0.068,6.86e-05,9.2e-05,0.0001366,0.0
0.35000000000000003,1.3260858058929443,-0.3182183504104614,8.351822543772869e-06,-5.961014267086284e-06,8.327408977493178e-06,0.033738765865564346,-0.0171580258756876,0.01661600172519684,0.14092126488685608,-0.07007967680692673,0.07075263559818268,0.0,0.0,-1.8949532508850098,0.068,6.86e-05,9.2e-05,0.0001366,0.0
0.36,1.325978398323059,-0.33193886280059814,8.297202839457896e-06,-5.9104218053107616e-06,8.295815860037692e-06,0.03470053896307945,-0.01765739731490612,0.0170871764421463,0.13996277749538422,-0.06958800554275513,0.07028140127658844,0.0,0.0,-1.959838628768921,0.068,6.86e-05,9.2e-05,0.0001366,0.0
0.37,1.3258733749389648,-0.34628307819366455,8.247308869613335e-06,-5.860420515091391e-06,8.262097253464162e-06,0.03566885367035866,-0.01816031150519848,0.017561253160238266,0.13899710774421692,-0.06909232586622238,0.06980714946985245,0.0,0.0,-2.0256733894348145,0.068,6.86e-05,9.2e-05,0.0001366,0.0
0.38,1.3257713317871094,-0.3612929582595825,8.202477147278842e-06,-5.811000846733805e-06,8.226117643062025e-06,0.03664357587695122,-0.018666734918951988,0.01803819090127945,0.13802435994148254,-0.06859265267848969,0.06932991743087769,0.0,0.0,-2.0924863815307617,0.068,6.86e-05,9.2e-05,0.0001366,0.0
0.39,1.3256727457046509,-0.3770047426223755,8.162285666912794e-06,-5.762166438216809e-06,8.187724233721383e-06,0.03762451186776161,-0.019176555797457695,0.018517866730690002,0.13704480230808258,-0.068089060485363,0.0688498392701149,0.0,0.0,-2.160299301147461,0.068,6.86e-05,9.2e-05,0.0001366,0.0
0.4,1.325577974319458,-0.39344990253448486,8.127072760544252e-06,-5.713905466109281e-06,8.146892469085287e-06,0.038611311465501785,-0.019689613953232765,0.019000109285116196,0.1360587626695633,-0.0675816535949707,0.0683671087026596,0.0,0.0,-2.2291290760040283,0.068,6.86e-05,9.2e-05,0.0001366,0.0
0.41000000000000003,1.3254871368408203,-0.4106684923171997,8.09582525107544e-06,-5.66622748010559e-06,8.103533218672965e-06,0.039603572338819504,-0.020205726847052574,0.019484713673591614,0.1350666582584381,-0.06707064807415009,0.06788193434476852,0.0,0.0,-2.298980712890625,0.068,6.86e-05,9.2e-05,0.0001366,0.0
0.42,1.325400471687317,-0.4286872148513794,8.068544048001058e-06,-5.619097464659717e-06,8.057671038841363e-06,0.040600743144750595,-0.020724618807435036,0.019971411675214767,0.1340690404176712,-0.06655627489089966,0.06739459186792374,0.0,0.0,-2.3698534965515137,0.068,6.86e-05,9.2e-05,0.0001366,0.0
0.43,1.3253179788589478,-0.44753849506378174,8.044637070270255e-06,-5.572508143814048e-06,8.009415068954695e-06,0.04160227254033089,-0.02124602533876896,0.020459916442632675,0.13306653499603271,-0.06603880971670151,0.06690538674592972,0.0,0.0,-2.4417383670806885,0.068,6.86e-05,9.2e-05,0.0001366,0.0
0.44,1.3252397775650024,-0.4672471284866333,8.023486770980526e-06,-5.526400855160318e-06,7.958721653267276e-06,0.042607489973306656,-0.021769607439637184,0.020949892699718475,0.13205984234809875,-0.06551859527826309,0.06641465425491333,0.0,0.0,-2.5146217346191406,0.068,6.86e-05,9.2e-05,0.0001366,0.0
0.45,1.3251656293869019,-0.48783791065216064,8.004530172911473e-06,-5.4807555898150895e-06,7.905823622422758e-06,0.04361570253968239,-0.022295022383332253,0.021441001445055008,0.13104964792728424,-0.06499598920345306,0.06592275947332382,0.0,0.0,-2.5884830951690674,0.068,6.86e-05,9.2e-05,0.0001366,0.0
0.46,1.3250950574874878,-0.5093289613723755,7.987064236658625e-06,-5.4355273277906235e-06,7.850746442272794e-06,0.04462617263197899,-0.022821901366114616,0.021932870149612427,0.13003677129745483,-0.06447137892246246,0.06543007493019104,0.0,0.0,-2.66329288482666,0.068,6.86e-05,9.2e-05,0.0001366,0.0
0.47000000000000003,1.3250280618667603,-0.531739354133606,7.97007669461891e-06,-5.390655132941902e-06,7.793851182213984e-06,0.04563817009329796,-0.023349864408373833,0.022425130009651184,0.12902197241783142,-0.06394515931606293,0.06493699550628662,0.0,0.0,-2.7390193939208984,0.068,6.86e-05,9.2e-05,0.0001366,0.0
0.48,1.3249638080596924,-0.5550805330276489,7.953089152579196e-06,-5.346089892555028e-06,7.735182407486718e-06,0.046650905162096024,-0.02387852407991886,0.02291739359498024,0.12800610065460205,-0.06341777741909027,0.0644439160823822,0.0,0.0,-2.8156261444091797,0.068,6.86e-05,9.2e-05,0.0001366,0.0
0.49,1.324901819229126,-0.5793648958206177,7.9353421824635e-06,-5.3017738537164405e-06,7.674961125303525e-06,0.04766359552741051,-0.024407489225268364,0.023409292101860046,0.1269899606704712,-0.06288964301347733,0.06395121663808823,0.0,0.0,-2.8930721282958984,0.068,6.86e-05,9.2e-05,0.0001366,0.0
0.5,1.3248416185379028,-0.604599118232727,7.915626156318467e-06,-5.257653810986085e-06,7.613436991960043e-06,0.04867551848292351,-0.0249363761395216,0.02390044555068016,0.1259743720293045,-0.06236117705702782,0.06345928460359573,0.0,0.0,-2.971310615539551,0.068,6.86e-05,9.2e-05,0.0001366,0.0
0.51,1.3247827291488647,-0.630783200263977,7.893857400631532e-06,-5.213662007008679e-06,7.550899226771435e-06,0.04968592897057533,-0.025464804843068123,0.024390507489442825,0.12496010959148407,-0.06183280795812607,0.06296849995851517,0.0,0.0,-3.0502967834472656,0.068,6.86e-05,9.2e-05,0.0001366,0.0
0.52,1.3247239589691162,-0.6579171419143677,7.8689099609619e-06,-5.169767064217012e-06,7.487563834729372e-06,0.05069412663578987,-0.025992421433329582,0.024879127740859985,0.12394793331623077,-0.06130494922399521,0.06247919425368309,0.0,0.0,-3.1299784183502197,0.068,6.86e-05,9.2e-05,0.0001366,0.0
0.53,1.3246650695800781,-0.6859990358352661,7.840278158255387e-06,-5.12589485879289e-06,7.423649094562279e-06,0.051699448376894,-0.02651887945830822,0.025365985929965973,0.12293856590986252,-0.06077798828482628,0.06199171021580696,0.0,0.0,-3.2103044986724854,0.068,6.86e-05,9.2e-05,0.0001366,0.0
0.54,1.3246055841445923,-0.7150193452835083,7.80748450779356e-06,-5.081995823275065e-06,7.359439223364461e-06,0.05270128324627876,-0.027043847367167473,0.025850776582956314,0.12193269282579422,-0.060252293944358826,0.06150636449456215,0.0,0.0,-3.2912232875823975,0.068,6.86e-05,9.2e-05,0.0001366,0.0
0.55,1.3245443105697632,-0.7449694871902466,7.769739568175282e-06,-5.038051313022152e-06,7.295119303307729e-06,0.05369902029633522,-0.027567042037844658,0.026333235204219818,0.12093093991279602,-0.0597282312810421,0.06102342903614044,0.0,0.0,-3.372680425643921,0.068,6.86e-05,9.2e-05,0.0001366,0.0
0.56,1.3244808912277222,-0.7758370637893677,7.727327101747505e-06,-4.9939972086576745e-06,7.230900791910244e-06,0.05469214543700218,-0.0280881617218256,0.02681310847401619,0.11993388831615448,-0.05920611321926117,0.06054316461086273,0.0,0.0,-3.454624652862549,0.068,6.86e-05,9.2e-05,0.0001366,0.0
0.5700000000000001,1.3244150876998901,-0.8076134920120239,7.67945766710909e-06,-4.949828962708125e-06,7.1669824137643445e-06,0.055680181831121445,-0.028606949374079704,0.027290165424346924,0.11894207447767258,-0.058686234056949615,0.060065798461437225,0.0,0.0,-3.5370001792907715,0.068,6.86e-05,9.2e-05,0.0001366,0.0
0.58,1.3243458271026611,-0.8402749300003052,7.625963007740211e-06,-4.9055315685109235e-06,7.103577900124947e-06,0.05666268244385719,-0.02912319265305996,0.027764204889535904,0.11795596778392792,-0.058168888092041016,0.05959155037999153,0.0,0.0,-3.6197550296783447,0.068,6.86e-05,9.2e-05,0.0001366,0.0
0.59,1.3242731094360352,-0.8738099336624146,7.56692770664813e-06,-4.861058187088929e-06,7.040854143269826e-06,0.05763925239443779,-0.02963666059076786,0.028235051780939102,0.11697602272033691,-0.05765431746840477,0.05912059545516968,0.0,0.0,-3.7028398513793945,0.068,6.86e-05,9.2e-05,0.0001366,0.0
0.6,1.3241963386535645,-0.9081946611404419,7.5022394412371796e-06,-4.816439286514651e-06,6.978891633480089e-06,0.05860954895615578,-0.03014717437326908,0.028702545911073685,0.11600261926651001,-0.05714273825287819,0.0586530826985836,0.0,0.0,-3.7862014770507812,0.068,6.86e-05,9.2e-05,0.0001366,0.0
0.61,1.3241150379180908,-0.9434138536453247,7.432179245370207e-06,-4.771643489220878e-06,6.917840892128879e-06,0.05957329645752907,-0.030654577538371086,0.0291665717959404,0.11503607034683228,-0.056634340435266495,0.05818914994597435,0.0,0.0,-3.869792938232422,0.068,6.86e-05,9.2e-05,0.0001366,0.0
0.62,1.3240292072296143,-0.9794446229934692,7.3566907303757034e-06,-4.7267103582271375e-06,6.857798325654585e-06,0.06053021922707558,-0.031158724799752235,0.029627010226249695,0.1140766590833664,-0.05612930655479431,0.057728901505470276,0.0,0.0,-3.9535653591156006,0.068,6.86e-05,9.2e-05,0.0001366,0.0
0.63,1.3239386081695557,-1.016266942024231,7.2760831244522706e-06,-4.6816385292913765e-06,6.798804861318786e-06,0.06148010864853859,-0.031659480184316635,0.030083782970905304,0.11312463134527206,-0.055627770721912384,0.05727243050932884,0.0,0.0,-4.037474155426025,0.068,6.86e-05,9.2e-05,0.0001366,0.0
0.64,1.3238428831100464,-1.053859829902649,7.190722953964723e-06,-4.636432095139753e-06,6.741030574630713e-06,0.06242277845740318,-0.032156750559806824,0.030536804348230362,0.1121801882982254,-0.05512986332178116,0.056819792836904526,0.0,0.0,-4.121473789215088,0.068,6.86e-05,9.2e-05,0.0001366,0.0
0.65,1.323742151260376,-1.092199444770813,7.100833954609698e-06,-4.591141532728216e-06,6.68437451167847e-06,0.06335809081792831,-0.03265044838190079,0.030986033380031586,0.11124349385499954,-0.05463568866252899,0.056371059268713,0.0,0.0,-4.205522537231445,0.068,6.86e-05,9.2e-05,0.0001366,0.0
0.66,1.3236364126205444,-1.1312686204910278,7.007007752690697e-06,-4.545778665487887e-06,6.629005838476587e-06,0.06428591907024384,-0.03314049541950226,0.031431425362825394,0.11031467467546463,-0.05414533242583275,0.05592625215649605,0.0,0.0,-4.289580821990967,0.068,6.86e-05,9.2e-05,0.0001366,0.0
0.67,1.323525309562683,-1.171042561531067,6.909525382070569e-06,-4.50038533017505e-06,6.5748081397032365e-06,0.06520616263151169,-0.03362683206796646,0.031872961670160294,0.10939383506774902,-0.0536588579416275,0.05548540875315666,0.0,0.0,-4.373607635498047,0.068,6.86e-05,9.2e-05,0.0001366,0.0
0.68,1.3234094381332397,-1.2115041017532349,6.808780199207831e-06,-4.454997906577773e-06,6.521906470879912e-06,0.0661187618970871,-0.034109413623809814,0.032310619950294495,0.1084810420870781,-0.05317632853984833,0.05504852533340454,0.0,0.0,-4.457568168640137,0.068,6.86e-05,9.2e-05,0.0001366,0.0
0.6900000000000001,1.3232886791229248,-1.2526274919509888,6.705363375658635e-06,-4.409624580148375e-06,6.47025217404007e-06,0.06702364981174469,-0.03458819165825844,0.0327443890273571,0.10757635533809662,-0.052697788923978806,0.05461561307311058,0.0,0.0,-4.54142427444458,0.068,6.86e-05,9.2e-05,0.0001366,0.0
0.7000000000000001,1.3231630325317383,-1.294394612312317,6.6000056904158555e-06,-4.3643290155159775e-06,6.41982524030027e-06,0.06792081147432327,-0.03506314009428024,0.03317427635192871,0.10667981207370758,-0.052223265171051025,0.05418667197227478,0.0,0.0,-4.6251420974731445,0.068,6.86e-05,9.2e-05,0.0001366,0.0
0.71,1.3230329751968384,-1.3367863893508911,6.492819920822512e-06,-4.319152139942162e-06,6.3705770116939675e-06,0.06881021708250046,-0.035534244030714035,0.03360028192400932,0.10579142719507217,-0.05175277963280678,0.053761690855026245,0.0,0.0,-4.708690166473389,0.068,6.86e-05,9.2e-05,0.0001366,0.0
0.72,1.322898507118225,-1.3797837495803833,6.384537300618831e-06,-4.2741376091726124e-06,6.322507488221163e-06,0.06969185173511505,-0.03600147366523743,0.03402243182063103,0.10491121560335159,-0.051286354660987854,0.05334063619375229,0.0,0.0,-4.79203987121582,0.068,6.86e-05,9.2e-05,0.0001366,0.0
0.73,1.3227601051330566,-1.4233704805374146,6.275608029682189e-06,-4.229307251080172e-06,6.275539362832205e-06,0.07056571543216705,-0.03646482527256012,0.03444073349237442,0.10403914004564285,-0.05082397907972336,0.052923500537872314,0.0,0.0,-4.875158309936523,0.068,6.86e-05,9.2e-05,0.0001366,0.0
0.74,1.322618007659912,-1.467525601387024,6.166481398395263e-06,-4.184714271104895e-06,6.229697646631394e-06,0.07143182307481766,-0.03692429140210152,0.03485521301627159,0.10317518562078476,-0.05036567151546478,0.052510250359773636,0.0,0.0,-4.95802116394043,0.068,6.86e-05,9.2e-05,0.0001366,0.0
0.75,1.3224724531173706,-1.5122300386428833,6.0578895499929786e-06,-4.140401870245114e-06,6.184900485095568e-06,0.07229018211364746,-0.03737987205386162,0.03526589646935463,0.10231932252645493,-0.04991142451763153,0.05210086330771446,0.0,0.0,-5.040600776672363,0.068,6.86e-05,9.2e-05,0.0001366,0.0
0.76,1.3223237991333008,-1.5574713945388794,5.949831574980635e-06,-4.096395969099831e-06,6.1411083152052015e-06,0.07314084470272064,-0.037831567227840424,0.03567279502749443,0.10147151350975037,-0.04946121945977211,0.05169530585408211,0.0,0.0,-5.122872829437256,0.068,6.86e-05,9.2e-05,0.0001366,0.0
0.77,1.3221721649169922,-1.6032315492630005,5.843124199600425e-06,-4.05276068704552e-06,6.098287940403679e-06,0.07398378103971481,-0.038279373198747635,0.03607596829533577,0.1006317213177681,-0.04901505634188652,0.051293544471263885,0.0,0.0,-5.204812526702881,0.068,6.86e-05,9.2e-05,0.0001366,0.0
0.78,1.3220182657241821,-1.6494961977005005,5.738103936892003e-06,-4.009481472166954e-06,6.056374786567176e-06,0.07481906563043594,-0.03872329369187355,0.03647540882229805,0.09979990869760513,-0.04857292398810387,0.05089554563164711,0.0,0.0,-5.286400318145752,0.068,6.86e-05,9.2e-05,0.0001366,0.0
0.79,1.3218623399734497,-1.6962472200393677,5.635165052808588e-06,-3.96663972423994e-06,6.015271992509952e-06,0.07564670592546463,-0.039163339883089066,0.03687116131186485,0.0989760160446167,-0.048134803771972656,0.05050127953290939,0.0,0.0,-5.367615699768066,0.068,6.86e-05,9.2e-05,0.0001366,0.0
0.8,1.321704626083374,-1.7434769868850708,5.534673164220294e-06,-3.924246811948251e-06,5.974979103484657e-06,0.07646674662828445,-0.039599526673555374,0.037263259291648865,0.09815998375415802,-0.0477006658911705,0.05011071264743805,0.0,0.0,-5.4484405517578125,0.068,6.86e-05,9.2e-05,0.0001366,0.0
0.81,1.3215458393096924,-1.7911673784255981,5.4368251767300535e-06,-3.882351848005783e-06,5.9354392760724295e-06,0.0772792249917984,-0.040031854063272476,0.03765173628926277,0.09735175967216492,-0.047270502895116806,0.04972380772233009,0.0,0.0,-5.528857707977295,0.068,6.86e-05,9.2e-05,0.0001366,0.0
0.8200000000000001,1.3213858604431152,-1.8393079042434692,5.3423236749949865e-06,-3.840952558675781e-06,5.896604307054076e-06,0.07808419317007065,-0.04046035185456276,0.03803661838173866,0.09655127674341202,-0.04684428125619888,0.04934052377939224,0.0,0.0,-5.608852863311768,0.068,6.86e-05,9.2e-05,0.0001366,0.0
0.8300000000000001,1.321225643157959,-1.88788902759552,5.251000857242616e-06,-3.8001030588930007e-06,5.8583691497915424e-06,0.07888169586658478,-0.04088501259684563,0.03841794282197952,0.09575844556093216,-0.04642198607325554,0.04896083101630211,0.0,0.0,-5.688411235809326,0.068,6.86e-05,9.2e-05,0.0001366,0.0
0.84,1.3210651874542236,-1.9368993043899536,5.1632218855957035e-06,-3.7598117614834337e-06,5.820806109113619e-06,0.07967174798250198,-0.04130587354302406,0.03879574313759804,0.09497323632240295,-0.046003587543964386,0.04858468472957611,0.0,0.0,-5.767523765563965,0.068,6.86e-05,9.2e-05,0.0001366,0.0
0.85,1.320905089378357,-1.9863282442092896,5.079492439108435e-06,-3.7200943552306853e-06,5.783794222224969e-06,0.08045443147420883,-0.04172293841838837,0.039170041680336,0.09419558942317963,-0.04558906331658363,0.04821205884218216,0.0,0.0,-5.846177577972412,0.068,6.86e-05,9.2e-05,0.0001366,0.0
0.86,1.320745587348938,-2.036168098449707,4.9995883273368236e-06,-3.6809888115385547e-06,5.747259820054751e-06,0.0812297835946083,-0.04213622957468033,0.039540886878967285,0.09342540055513382,-0.0451783761382103,0.04784291610121727,0.0,0.0,-5.9243669509887695,0.068,6.86e-05,9.2e-05,0.0001366,0.0
0.87,1.3205872774124146,-2.0864086151123047,4.92404342367081e-06,-3.642513092927402e-06,5.71121154280263e-06,0.08199786394834518,-0.042545780539512634,0.03990831598639488,0.09266259521245956,-0.044771499931812286,0.047477204352617264,0.0,0.0,-6.002085208892822,0.068,6.86e-05,9.2e-05,0.0001366,0.0
0.88,1.3204302787780762,-2.1370487213134766,4.8525771489948966e-06,-3.604650373745244e-06,5.675576630892465e-06,0.08275876939296722,-0.042951613664627075,0.04027235507965088,0.0919070765376091,-0.04436839744448662,0.047114890068769455,0.0,0.0,-6.079329490661621,0.068,6.86e-05,9.2e-05,0.0001366,0.0
0.89,1.3202749490737915,-2.188077926635742,4.785751116287429e-06,-3.567447720342898e-06,5.640362815029221e-06,0.08351254463195801,-0.04335375502705574,0.04063307121396065,0.09115878492593765,-0.04396902769804001,0.04675592854619026,0.0,0.0,-6.156097412109375,0.068,6.86e-05,9.2e-05,0.0001366,0.0
0.9,1.3201221227645874,-2.239495277404785,4.72328474643291e-06,-3.5308812584844418e-06,5.605440492217895e-06,0.0842592716217041,-0.04375224560499191,0.04099049046635628,0.09041758626699448,-0.043573345988988876,0.046400267630815506,0.0,0.0,-6.232388019561768,0.068,6.86e-05,9.2e-05,0.0001366,0.0
0.91,1.3199716806411743,-2.2912988662719727,4.665374490286922e-06,-3.494983957352815e-06,5.57082648811047e-06,0.08499903976917267,-0.044147126376628876,0.04134465754032135,0.0896834060549736,-0.04318130388855934,0.04604785516858101,0.0,0.0,-6.3082051277160645,0.068,6.86e-05,9.2e-05,0.0001366,0.0
0.92,1.31982421875,-2.3434858322143555,4.611964413925307e-06,-3.4597469493746758e-06,5.536511707759928e-06,0.08573193848133087,-0.04453844577074051,0.04169563949108124,0.08895612508058548,-0.042792852967977524,0.04569865018129349,0.0,0.0,-6.383553981781006,0.068,6.86e-05,9.2e-05,0.0001366,0.0
0.93,1.3196799755096436,-2.396055221557617,4.563110906019574e-06,-3.425182740102173e-06,5.5024402172421105e-06,0.08645807951688766,-0.0449262335896492,0.042043477296829224,0.08823562413454056,-0.04240794852375984,0.045352596789598465,0.0,0.0,-6.458439350128174,0.068,6.86e-05,9.2e-05,0.0001366,0.0
0.9400000000000001,1.3195390701293945,-2.4490089416503906,4.518869445746532e-06,-3.3912888284248766e-06,5.468546987685841e-06,0.0871775671839714,-0.04531056433916092,0.04238823801279068,0.08752177655696869,-0.04202651605010033,0.04500962421298027,0.0,0.0,-6.532872200012207,0.068,6.86e-05,9.2e-05,0.0001366,0.0
0.9500000000000001,1.3194024562835693,-2.502351760864258,4.478903520066524e-06,-3.3580540730326902e-06,5.434847935248399e-06,0.08789052814245224,-0.045691490173339844,0.042729977518320084,0.08681444823741913,-0.0416484996676445,0.044669680297374725,0.0,0.0,-6.606862545013428,0.068,6.86e-05,9.2e-05,0.0001366,0.0
0.96,1.3192698955535889,-2.556086540222168,4.443577836354962e-06,-3.325490979477763e-06,5.40127848580596e-06,0.08859708160161972,-0.04606906697154045,0.043068766593933105,0.08611349016427994,-0.04127383604645729,0.04433268681168556,0.0,0.0,-6.680425643920898,0.068,6.86e-05,9.2e-05,0.0001366,0.0
0.97,1.3191418647766113,-2.610218048095703,4.41238717030501e-06,-3.2935663512034807e-06,5.367863195715472e-06,0.08929739147424698,-0.04644337669014931,0.043404676020145416,0.08541874587535858,-0.04090243577957153,0.04399857670068741,0.0,0.0,-6.753574848175049,0.068,6.86e-05,9.2e-05,0.0001366,0.0
0.98,1.3190186023712158,-2.664759635925293,4.385499323689146e-06,-3.262294512751396e-06,5.334528395906091e-06,0.08999159932136536,-0.04681449383497238,0.043737784028053284,0.08473006635904312,-0.04053421691060066,0.0436672680079937,0.0,0.0,-6.826327800750732,0.068,6.86e-05,9.2e-05,0.0001366,0.0
0.99,1.3189005851745605,-2.7197160720825195,4.362717390904436e-06,-3.2316700071532978e-06,5.301250894262921e-06,0.09067986905574799,-0.04718250036239624,0.044068168848752975,0.08404726535081863,-0.04016910865902901,0.04333868995308876,0.0,0.0,-6.898705959320068,0.068,6.86e-05,9.2e-05,0.0001366,0.0
1.0,1.318787932395935,-2.7751007080078125,4.343845375842648e-06,-3.201667368557537e-06,5.26807025380549e-06,0.0913623794913292,-0.047547485679388046,0.04439592361450195,0.0833701491355896,-0.03980701044201851,0.043012745678424835,0.0,0.0,-6.970731735229492,0.068,6.86e-05,9.2e-05,0.0001366,0.0
1.01,1.3186806440353394,-2.8309268951416016,4.328911018092185e-06,-3.1722856874694116e-06,5.234897798800375e-06,0.0920393243432045,-0.04790954291820526,0.04472113028168678,0.0826985314488411,-0.03944782540202141,0.04268934577703476,0.0,0.0,-7.042428970336914,0.068,6.86e-05,9.2e-05,0.0001366,0.0
1.02,1.3185795545578003,-2.887209892272949,4.317548246035585e-06,-3.1435058645001845e-06,5.201774001761805e-06,0.09271088987588882,-0.04826878756284714,0.04504390060901642,0.08203219622373581,-0.03909144550561905,0.042368389666080475,0.0,0.0,-7.113824367523193,0.068,6.86e-05,9.2e-05,0.0001366,0.0
1.03,1.3184844255447388,-2.9439687728881836,4.309729320084443e-06,-3.1152969768299954e-06,5.168666575627867e-06,0.09337730705738068,-0.04862530529499054,0.04536433145403862,0.08137092739343643,-0.03873775154352188,0.04204976558685303,0.0,0.0,-7.184947490692139,0.068,6.86e-05,9.2e-05,0.0001366,0.0
1.04,1.318395733833313,-3.001223564147949,4.30545424023876e-06,-3.0876735763740726e-06,5.135591436555842e-06,0.09403880685567856,-0.04897923767566681,0.045682527124881744,0.08071448653936386,-0.038386642932891846,0.041733380407094955,0.0,0.0,-7.2558274269104,0.068,6.86e-05,9.2e-05,0.0001366,0.0
1.05,1.318313479423523,-3.0589962005615234,4.303935384086799e-06,-3.060586777792196e-06,5.10245126861264e-06,0.09469559788703918,-0.0493306927382946,0.04599861055612564,0.08006265759468079,-0.0380379892885685,0.04141910746693611,0.0,0.0,-7.326498985290527,0.068,6.86e-05,9.2e-05,0.0001366,0.0
1.06,1.3182380199432373,-3.117312431335449,4.305876245780382e-06,-3.0340368084580405e-06,5.069270628155209e-06,0.09534794837236404,-0.04967980459332466,0.04631270468235016,0.07941514253616333,-0.03769165277481079,0.041106823831796646,0.0,0.0,-7.39699649810791,0.068,6.86e-05,9.2e-05,0.0001366,0.0
1.07,1.3181697130203247,-3.1761999130249023,4.310207714297576e-06,-3.008008434335352e-06,5.0360499699309e-06,0.09599614143371582,-0.05002670735120773,0.046624936163425446,0.0787716954946518,-0.03734749183058739,0.04079641401767731,0.0,0.0,-7.4673590660095215,0.068,6.86e-05,9.2e-05,0.0001366,0.0
1.08,1.318108320236206,-3.2356882095336914,4.317491857364075e-06,-2.9824670946254628e-06,5.0028370424115565e-06,0.0966404378414154,-0.05037156119942665,0.04693544656038284,0.0781320333480835,-0.03700537234544754,0.04048772156238556,0.0,0.0,-7.537625312805176,0.068,6.86e-05,9.2e-05,0.0001366,0.0
1.09,1.3180543184280396,-3.2958126068115234,4.326941962062847e-06,-2.9573941446869867e-06,4.96955090056872e-06,0.09728113561868668,-0.05071450397372246,0.0472443662583828,0.07749584317207336,-0.03666513040661812,0.040180619806051254,0.0,0.0,-7.6078362464904785,0.068,6.86e-05,9.2e-05,0.0001366,0.0
1.1,1.3180078268051147,-3.356607437133789,4.338698545325315e-06,-2.9327675292734057e-06,4.9362006393494084e-06,0.09791853278875351,-0.051055699586868286,0.04755184426903725,0.07686283439397812,-0.03632661700248718,0.039874956011772156,0.0,0.0,-7.678038120269775,0.068,6.86e-05,9.2e-05,0.0001366,0.0
1.11,1.3179689645767212,-3.4181127548217773,4.352451924205525e-06,-2.9085711048537632e-06,4.902874024992343e-06,0.09855296462774277,-0.051395319402217865,0.047858040779829025,0.07623268663883209,-0.0359896644949913,0.039570581167936325,0.0,0.0,-7.748275279998779,0.068,6.86e-05,9.2e-05,0.0001366,0.0
1.12,1.3179380893707275,-3.480365753173828,4.368005193100544e-06,-2.8847598514403217e-06,4.869385975325713e-06,0.09918474406003952,-0.05173351615667343,0.04816311225295067,0.07560505717992783,-0.03565409779548645,0.03926733881235123,0.0,0.0,-7.818597316741943,0.068,6.86e-05,9.2e-05,0.0001366,0.0
1.1300000000000001,1.3179150819778442,-3.5434226989746094,4.385133706819033e-06,-2.861340590243344e-06,4.835905656364048e-06,0.09981425106525421,-0.052070505917072296,0.048467233777046204,0.07497958838939667,-0.0353197380900383,0.03896504268050194,0.0,0.0,-7.889053821563721,0.068,6.86e-05,9.2e-05,0.0001366,0.0
1.1400000000000001,1.3179000616073608,-3.6073246002197266,4.403583716339199e-06,-2.8382582968333736e-06,4.802408966497751e-06,0.1004418209195137,-0.05240645259618759,0.04877057671546936,0.07435593008995056,-0.03498638793826103,0.038663528859615326,0.0,0.0,-7.959701061248779,0.068,6.86e-05,9.2e-05,0.0001366,0.0
1.1500000000000001,1.317893385887146,-3.672130584716797,4.4231869651412126e-06,-2.8154890969744883e-06,4.768855887959944e-06,0.10106785595417023,-0.05274156853556633,0.04907333105802536,0.07373369485139847,-0.034653857350349426,0.03836260735988617,0.0,0.0,-8.03059196472168,0.068,6.86e-05,9.2e-05,0.0001366,0.0
1.16,1.3178950548171997,-3.737894058227539,4.443718808033736e-06,-2.7930136639042757e-06,4.735270522360224e-06,0.10169273614883423,-0.05307604745030403,0.04937567934393883,0.07311248034238815,-0.03432193771004677,0.03806209936738014,0.0,0.0,-8.101786613464355,0.068,6.86e-05,9.2e-05,0.0001366,0.0
1.17,1.317905068397522,-3.8046789169311523,4.46500962425489e-06,-2.770816763586481e-06,4.701644229498925e-06,0.10231687873601913,-0.0534101203083992,0.049677830189466476,0.07249187678098679,-0.03399040922522545,0.03776179254055023,0.0,0.0,-8.173345565795898,0.068,6.86e-05,9.2e-05,0.0001366,0.0
1.18,1.3179235458374023,-3.872553825378418,4.486637863010401e-06,-2.7488363230077084e-06,4.667977918870747e-06,0.10294073820114136,-0.053744010627269745,0.04997998848557472,0.07187144458293915,-0.03365905582904816,0.037461474537849426,0.0,0.0,-8.245332717895508,0.068,6.86e-05,9.2e-05,0.0001366,0.0
1.19,1.31795072555542,-3.94158935546875,4.508575784711866e-06,-2.7270577902527293e-06,4.6343357098521665e-06,0.10356476157903671,-0.054077956825494766,0.05028238520026207,0.07125072926282883,-0.03332763537764549,0.03716092184185982,0.0,0.0,-8.317818641662598,0.068,6.86e-05,9.2e-05,0.0001366,0.0
1.2,1.3179864883422852,-4.01186466217041,4.530457317741821e-06,-2.7054552447225433e-06,4.600701231538551e-06,0.104189433157444,-0.05441220849752426,0.050585247576236725,0.07062924653291702,-0.03299589827656746,0.036859914660453796,0.0,0.0,-8.390869140625,0.068,6.86e-05,9.2e-05,0.0001366,0.0
1.21,1.3180307149887085,-4.083463668823242,4.552029622573173e-06,-2.6839898055186495e-06,4.567099495034199e-06,0.10481522977352142,-0.05474702641367912,0.05088881403207779,0.07000650465488434,-0.03266358748078346,0.036558203399181366,0.0,0.0,-8.464561462402344,0.068,6.86e-05,9.2e-05,0.0001366,0.0
1.22,1.318083643913269,-4.156475067138672,4.573207661451306e-06,-2.6626273665897315e-06,4.533514129434479e-06,0.10544268786907196,-0.05508268252015114,0.05119334161281586,0.06938198208808899,-0.03233043849468231,0.03625553473830223,0.0,0.0,-8.53897476196289,0.068,6.86e-05,9.2e-05,0.0001366,0.0
1.23,1.3181452751159668,-4.2309980392456055,4.593401627062121e-06,-2.641321088958648e-06,4.4999692363489885e-06,0.10607238858938217,-0.055419471114873886,0.051499105989933014,0.0687551200389862,-0.03199616074562073,0.035951633006334305,0.0,0.0,-8.614188194274902,0.068,6.86e-05,9.2e-05,0.0001366,0.0
1.24,1.3182151317596436,-4.307137489318848,4.612723842001287e-06,-2.620048917378881e-06,4.4665130189969204e-06,0.10670489072799683,-0.05575769022107124,0.051806386560201645,0.06812531501054764,-0.03166044130921364,0.0356462188065052,0.0,0.0,-8.690290451049805,0.068,6.86e-05,9.2e-05,0.0001366,0.0
1.25,1.3182932138442993,-4.385008811950684,4.630583589460002e-06,-2.598759238026105e-06,4.433130015968345e-06,0.10734083503484726,-0.05609767884016037,0.052115488797426224,0.06749195605516434,-0.03132297471165657,0.03533898666501045,0.0,0.0,-8.767372131347656,0.068,6.86e-05,9.2e-05,0.0001366,0.0
1.26,1.318379282951355,-4.464733123779297,4.6468680920952465e-06,-2.5774133973754942e-06,4.399892986839404e-06,0.1079808697104454,-0.05643976852297783,0.05242673307657242,0.06685438752174377,-0.030983414500951767,0.03502960875630379,0.0,0.0,-8.845529556274414,0.068,6.86e-05,9.2e-05,0.0001366,0.0
1.27,1.3184728622436523,-4.546442985534668,4.6610152821813244e-06,-2.5559695586707676e-06,4.36677737525315e-06,0.10862571746110916,-0.05678432434797287,0.05274045839905739,0.06621188670396805,-0.03064139373600483,0.03471776098012924,0.0,0.0,-8.92486572265625,0.068,6.86e-05,9.2e-05,0.0001366,0.0
1.28,1.3185739517211914,-4.630289077758789,4.67310928797815e-06,-2.5343833840452135e-06,4.333815468271496e-06,0.10927613079547882,-0.05713174492120743,0.05305703729391098,0.06556370854377747,-0.030296526849269867,0.03440304845571518,0.0,0.0,-9.005484580993652,0.068,6.86e-05,9.2e-05,0.0001366,0.0
1.29,1.3186814785003662,-4.716426849365234,4.682306098402478e-06,-2.512592345738085e-06,4.301031822251389e-06,0.10993290692567825,-0.05748245120048523,0.05337686464190483,0.06490904092788696,-0.029948407784104347,0.034085094928741455,0.0,0.0,-9.087503433227539,0.068,6.86e-05,9.2e-05,0.0001366,0.0
1.3,1.318794846534729,-4.805025100708008,4.688803073804593e-06,-2.4905673399189254e-06,4.268418251740513e-06,0.11059694737195969,-0.05783689767122269,0.05370035767555237,0.06424698978662491,-0.02959657460451126,0.03376345708966255,0.0,0.0,-9.171046257019043,0.068,6.86e-05,9.2e-05,0.0001366,0.0
1.31,1.3189128637313843,-4.896278381347656,4.6916998144297395e-06,-2.4682165076228557e-06,4.236039785610046e-06,0.11126921325922012,-0.058195579797029495,0.0540279857814312,0.0635765939950943,-0.029240526258945465,0.03343767672777176,0.0,0.0,-9.256241798400879,0.068,6.86e-05,9.2e-05,0.0001366,0.0
1.32,1.319034457206726,-4.990392684936523,4.690996775025269e-06,-2.4455007405776996e-06,4.2038959691126365e-06,0.11195074021816254,-0.05855903401970863,0.05436026304960251,0.06289681792259216,-0.02887975051999092,0.03310724347829819,0.0,0.0,-9.343230247497559,0.068,6.86e-05,9.2e-05,0.0001366,0.0
1.33,1.3191579580307007,-5.087594032287598,4.68599046143936e-06,-2.4223472792073153e-06,4.172011813352583e-06,0.11264266818761826,-0.058927856385707855,0.054697729647159576,0.062206488102674484,-0.028513645753264427,0.03277159854769707,0.0,0.0,-9.432158470153809,0.068,6.86e-05,9.2e-05,0.0001366,0.0
1.34,1.3192811012268066,-5.18813419342041,4.676540356740588e-06,-2.3986860924196662e-06,4.140305463806726e-06,0.11334627121686935,-0.05930269882082939,0.055041003972291946,0.061504341661930084,-0.02814156748354435,0.03243012726306915,0.0,0.0,-9.523189544677734,0.068,6.86e-05,9.2e-05,0.0001366,0.0
1.35,1.319401741027832,-5.292294502258301,4.661943421524484e-06,-2.3744412374071544e-06,4.1087937461270485e-06,0.11406299471855164,-0.05968428775668144,0.05539076775312424,0.060788948088884354,-0.02776278555393219,0.03208213299512863,0.0,0.0,-9.616494178771973,0.068,6.86e-05,9.2e-05,0.0001366,0.0
1.36,1.3195159435272217,-5.400384902954102,4.642030489776516e-06,-2.3495335881307255e-06,4.0774602894089185e-06,0.11479440331459045,-0.06007345765829086,0.05574779585003853,0.060058705508708954,-0.027376482263207436,0.03172684460878372,0.0,0.0,-9.712263107299805,0.068,6.86e-05,9.2e-05,0.0001366,0.0
1.37,1.31961989402771,-5.51275634765625,4.615986654243898e-06,-2.3238537778524915e-06,4.046183221362298e-06,0.11554232984781265,-0.060471124947071075,0.05611294507980347,0.05931177735328674,-0.026981735602021217,0.031363386660814285,0.0,0.0,-9.810697555541992,0.068,6.86e-05,9.2e-05,0.0001366,0.0
1.3800000000000001,1.3197084665298462,-5.629802703857422,4.583698682836257e-06,-2.2973179056862136e-06,4.014906608063029e-06,0.11630882322788239,-0.060878362506628036,0.05648721382021904,0.05854607746005058,-0.02657749503850937,0.03099074773490429,0.0,0.0,-9.912019729614258,0.068,6.86e-05,9.2e-05,0.0001366,0.0
1.3900000000000001,1.3197743892669678,-5.7519683837890625,4.5446886360878125e-06,-2.2698061457049334e-06,3.9834112612879835e-06,0.11709628999233246,-0.06129638850688934,0.056871745735406876,0.05775919929146767,-0.026162514463067055,0.030607787892222404,0.0,0.0,-10.016472816467285,0.068,6.86e-05,9.2e-05,0.0001366,0.0
1.4000000000000001,1.3198093175888062,-5.87976598739624,4.49822573500569e-06,-2.2412145881389733e-06,3.951437520299805e-06,0.11790752410888672,-0.0617266409099102,0.057267867028713226,0.05694832280278206,-0.02573537267744541,0.030213147401809692,0.0,0.0,-10.124326705932617,0.068,6.86e-05,9.2e-05,0.0001366,0.0
1.41,1.319801926612854,-6.013785362243652,4.444534170033876e-06,-2.211402943430585e-06,3.918621587217785e-06,0.11874581128358841,-0.06217081844806671,0.057677168399095535,0.05611009523272514,-0.025294367223978043,0.02980523183941841,0.0,0.0,-10.235877990722656,0.068,6.86e-05,9.2e-05,0.0001366,0.0
1.42,1.319737434387207,-6.154712677001953,4.382883616926847e-06,-2.1802263745485106e-06,3.884436409862246e-06,0.11961513012647629,-0.06263095885515213,0.05810152366757393,0.05524050444364548,-0.024837451055645943,0.02938213385641575,0.0,0.0,-10.351459503173828,0.068,6.86e-05,9.2e-05,0.0001366,0.0
1.43,1.319596767425537,-6.303356647491455,4.3134136831213254e-06,-2.1475550511240726e-06,3.848096639558207e-06,0.12052030861377716,-0.06310954689979553,0.05854323133826256,0.05433465540409088,-0.02436213567852974,0.028941545635461807,0.0,0.0,-10.47144603729248,0.068,6.86e-05,9.2e-05,0.0001366,0.0
1.44,1.3193541765213013,-6.460686206817627,4.236406766722212e-06,-2.113208438458969e-06,3.80859773940756e-06,0.12146729230880737,-0.06360962986946106,0.05900513008236885,0.05338650569319725,-0.023865334689617157,0.02848060056567192,0.0,0.0,-10.59626293182373,0.068,6.86e-05,9.2e-05,0.0001366,0.0
1.45,1.3189752101898193,-6.627872943878174,4.1522553146933205e-06,-2.0770044102391694e-06,3.764303073694464e-06,0.12246354669332504,-0.06413507461547852,0.059490762650966644,0.052388470619916916,-0.0233431626111269,0.027995729818940163,0.0,0.0,-10.726399421691895,0.068,6.86e-05,9.2e-05,0.0001366,0.0
1.46,1.318411946296692,-6.806355953216553,4.062254447489977e-06,-2.0387969925650395e-06,3.712936404554057e-06,0.12351866066455841,-0.06469081342220306,0.06000468134880066,0.05133078992366791,-0.02279062196612358,0.027482356876134872,0.0,0.0,-10.862419128417969,0.068,6.86e-05,9.2e-05,0.0001366,0.0
1.47,1.3175981044769287,-6.997947692871094,3.968484179495135e-06,-1.998387460844242e-06,3.6512008136924123e-06,0.1246451660990715,-0.06528332084417343,0.060552842915058136,0.050200723111629486,-0.02220114879310131,0.02693449892103672,0.0,0.0,-11.004985809326172,0.068,6.86e-05,9.2e-05,0.0001366,0.0
1.48,1.3164371252059937,-7.2049689292907715,3.8747707549191546e-06,-1.955647576323827e-06,3.574147058316157e-06,0.12585985660552979,-0.06592128425836563,0.06114324554800987,0.04898115620017052,-0.02156594581902027,0.026344170793890953,0.0,0.0,-11.15488338470459,0.068,6.86e-05,9.2e-05,0.0001366,0.0
1.49,1.3147871494293213,-7.4304704666137695,3.786906972891302e-06,-1.9104729744867655e-06,3.4741760828183033e-06,0.1271858662366867,-0.06661668419837952,0.06178690493106842,0.04764852300286293,-0.02087281085550785,0.025700407102704048,0.0,0.0,-11.3130464553833,0.068,6.86e-05,9.2e-05,0.0001366,0.0
1.5,1.3124288320541382,-7.6785736083984375,3.7158340546739055e-06,-1.862960061771446e-06,3.3391372653568396e-06,0.1286560446023941,-0.06738656759262085,0.062499526888132095,0.046169329434633255,-0.020104356110095978,0.024987628683447838,0.0,0.0,-11.480591773986816,0.068,6.86e-05,9.2e-05,0.0001366,0.0
1.51,1.3090112209320068,-7.955044746398926,3.6784554140467662e-06,-1.8135008303943323e-06,3.149248414047179e-06,0.13031896948814392,-0.06825621426105499,0.06330438703298569,0.044494107365608215,-0.019234787672758102,0.024182908236980438,0.0,0.0,-11.658846855163574,0.068,6.86e-05,9.2e-05,0.0001366,0.0
1.52,1.3039376735687256,-8.268258094787598,3.707283894982538e-06,-1.763240220498119e-06,2.8703329917334486e-06,0.13224968314170837,-0.06926470994949341,0.06423770636320114,0.04254640266299248,-0.018224038183689117,0.023250862956047058,0.0,0.0,-11.849331855773926,0.068,6.86e-05,9.2e-05,0.0001366,0.0
1.53,1.2961225509643555,-8.630983352661133,3.859723619825672e-06,-1.7148942106359755e-06,2.439059244352393e-06,0.1345711648464203,-0.07047630101442337,0.06535924971103668,0.04020125791430473,-0.01700620725750923,0.02213366888463497,0.0,0.0,-12.053568840026855,0.068,6.86e-05,9.2e-05,0.0001366,0.0
1.54,1.2834020853042603,-9.063881874084473,4.252634880685946e-06,-1.675057205829944e-06,1.7281894315601676e-06,0.13750039041042328,-0.07200470566749573,0.06677591800689697,0.03723882883787155,-0.015464473515748978,0.020729364827275276,0.0,0.0,-12.27232837677002,0.068,6.86e-05,9.2e-05,0.0001366,0.0
1.55,1.2609020471572876,-9.603108406066895,5.128205430082744e-06,-1.6596495697740465e-06,4.504159392126894e-07,0.14146114885807037,-0.07407275587320328,0.06870073825120926,0.03323274478316307,-0.013370011933147907,0.018838323652744293,0.0,0.0,-12.50265121459961,0.068,6.86e-05,9.2e-05,0.0001366,0.0
1.56,1.2155953645706177,-10.319159507751465,7.004771759966388e-06,-1.7055748458005837e-06,-2.1522130282392027e-06,0.14741134643554688,-0.07718531787395477,0.07163117825984955,0.02723410539329052,-0.01020776852965355,0.016004007309675217,0.0,0.0,-12.724946975708008,0.068,6.86e-05,9.2e-05,0.0001366,0.0
1.57,1.1032869815826416,-11.37932300567627,1.0349089279770851e-05,-1.8319831269764109e-06,-8.515838999301195e-06,0.1580808460712433,-0.08276825398206711,0.07705237716436386,0.016647815704345703,-0.004555270541459322,0.01087703462690115,0.0,0.0,-12.831425666809082,0.068,6.86e-05,9.2e-05,0.0001366,0.0
1.58,0.7516981363296509,-13.61386775970459,2.93118006311488e-07,-4.3573874108915334e-07,-2.7912448786082678e-05,0.1856784224510193,-0.09663201123476028,0.09149395674467087,-0.00923585332930088,0.009379362687468529,-0.0027796991635113955,0.0,0.0,-12.136175155639648,0.068,6.86e-05,9.2e-05,0.0001366,0.0
1.59,0.03941081464290619,-25.40669059753418,0.0001498353376518935,-2.4634830424474785e-06,-0.000129456544527784,0.3076862394809723,-0.15354885160923004,0.14805056154727936,-0.12289700657129288,0.07216058671474457,-0.05623835697770119,0.0,0.0,-10.680452346801758,0.068,6.86e-05,9.2e-05,0.0001366,0.0
1.6,-0.1395605057477951,-28.339447021484375,-8.037332918320317e-06,3.9273240872717e-06,-4.824309144169092e-05,0.3134666681289673,-0.16207446157932281,0.15468424558639526,-0.13355796039104462,0.07831624895334244,-0.06391773372888565,0.0,0.0,-9.75551700592041,0.068,6.86e-05,9.2e-05,0.0001366,0.0
1.61,-0.1268061250448227,-27.47161293029785,-1.971051278815139e-05,1.225400592375081e-05,6.218640010047238e-06,0.2941175699234009,-0.1529921591281891,0.14541947841644287,-0.11697614938020706,0.06798269599676132,-0.056684497743844986,0.0,0.0,-8.344386100769043,0.068,6.86e-05,9.2e-05,0.0001366,0.0
1.62,-0.13619981706142426,-26.890914916992188,-4.644119690055959e-05,1.57511567522306e-05,3.142509376630187e-05,0.2799704074859619,-0.14567819237709045,0.1382758766412735,-0.10399169474840164,0.059841327369213104,-0.05049882456660271,0.0,0.0,-7.13650369644165,0.068,6.86e-05,9.2e-05,0.0001366,0.0
1.6300000000000001,-0.14550267159938812,-26.551437377929688,-4.5942393626319245e-05,1.64768844115315e-05,4.193084896542132e-05,0.26834362745285034,-0.13954652845859528,0.13232038915157318,-0.09297973662614822,0.05321827530860901,-0.04498576745390892,0.0,0.0,-6.170825004577637,0.068,6.86e-05,9.2e-05,0.0001366,0.0
1.6400000000000001,-0.14900259673595428,-26.340316772460938,-4.44849647465162e-05,1.5879995771683753e-05,4.480016286834143e-05,0.25830078125,-0.13416796922683716,0.12723127007484436,-0.08311794698238373,0.04766802489757538,-0.04005593806505203,0.0,0.0,-5.398900508880615,0.068,6.86e-05,9.2e-05,0.0001366,0.0
1.6500000000000001,-0.14763693511486053,-26.185623168945312,-3.900932279066183e-05,1.4781115169171244e-05,4.439512485987507e-05,0.2493874579668045,-0.12940764427185059,0.12276206910610199,-0.07421021908521652,0.04288326948881149,-0.035641659051179886,0.0,0.0,-4.7657365798950195,0.068,6.86e-05,9.2e-05,0.0001366,0.0
1.6600000000000001,-0.14342229068279266,-26.058137893676758,-3.4528136893641204e-05,1.3650899745698553e-05,4.284315218683332e-05,0.2415326088666916,-0.1252187341451645,0.11885517835617065,-0.06625162810087204,0.038703639060258865,-0.03173528239130974,0.0,0.0,-4.2321457862854,0.068,6.86e-05,9.2e-05,0.0001366,0.0
1.67,-0.13807789981365204,-25.93442726135254,-3.0747636628802866e-05,1.2666605471167713e-05,4.117778371437453e-05,0.2346656173467636,-0.12156554311513901,0.11545521020889282,-0.05923984944820404,0.03503049165010452,-0.02832043170928955,0.0,0.0,-3.7702510356903076,0.068,6.86e-05,9.2e-05,0.0001366,0.0
1.68,-0.13240765035152435,-25.806978225708008,-2.8050359105691314e-05,1.1866936802107375e-05,3.97358562622685e-05,0.2287096530199051,-0.11839928478002548,0.11251610517501831,-0.05312557518482208,0.03180428966879845,-0.02536206692457199,0.0,0.0,-3.3623859882354736,0.068,6.86e-05,9.2e-05,0.0001366,0.0
1.69,-0.1267189234495163,-25.673574447631836,-2.5924699002644047e-05,1.1215969607292209e-05,3.8555786886718124e-05,0.22354817390441895,-0.11565475910902023,0.109977126121521,-0.04781293123960495,0.028972743079066277,-0.022806230932474136,0.0,0.0,-2.996819019317627,0.068,6.86e-05,9.2e-05,0.0001366,0.0
1.7,-0.12107716500759125,-25.536739349365234,-2.4170829419745132e-05,1.0670308256521821e-05,3.7568261177511886e-05,0.21905896067619324,-0.11326497048139572,0.10777661949396133,-0.043189115822315216,0.02648567594587803,-0.020591702312231064,0.0,0.0,-2.6657824516296387,0.068,6.86e-05,9.2e-05,0.0001366,0.0
1.71,-0.11549977958202362,-25.399383544921875,-2.25890598812839e-05,1.0194027709076181e-05,3.669879151857458e-05,0.21512623131275177,-0.11116804927587509,0.10585594922304153,-0.039142534136772156,0.024292783811688423,-0.018659427762031555,0.0,0.0,-2.3637497425079346,0.068,6.86e-05,9.2e-05,0.0001366,0.0
1.72,-0.10999272763729095,-25.264036178588867,-2.111725916620344e-05,9.764194146555383e-06,3.5892357118427753e-05,0.21164996922016144,-0.10931115597486496,0.10416431725025177,-0.03557340055704117,0.022347209975123405,-0.01695752516388893,0.0,0.0,-2.0865161418914795,0.068,6.86e-05,9.2e-05,0.0001366,0.0
1.73,-0.10456244647502899,-25.132183074951172,-1.9716138922376558e-05,9.366372978547588e-06,3.511521572363563e-05,0.2085464596748352,-0.10765033215284348,0.10265901684761047,-0.03239637613296509,0.02060706354677677,-0.01544263493269682,0.0,0.0,-1.8306255340576172,0.068,6.86e-05,9.2e-05,0.0001366,0.0
1.74,-0.09920929372310638,-25.004531860351562,-1.8377848391537555e-05,8.99175756785553e-06,3.434767495491542e-05,0.20574700832366943,-0.10614962130784988,0.10130513459444046,-0.029540391638875008,0.019036436453461647,-0.014079290442168713,0.0,0.0,-1.5931031703948975,0.068,6.86e-05,9.2e-05,0.0001366,0.0
1.75,-0.09392724931240082,-24.881166458129883,-1.7096428564400412e-05,8.634483492642175e-06,3.357831155881286e-05,0.2031954675912857,-0.10477957129478455,0.10007419437170029,-0.02694680728018284,0.017605038359761238,-0.012838783673942089,0.0,0.0,-1.3713164329528809,0.068,6.86e-05,9.2e-05,0.0001366,0.0
1.76,-0.08870266377925873,-24.761808395385742,-1.587064252817072e-05,8.290386176668108e-06,3.280003511463292e-05,0.20084577798843384,-0.10351607948541641,0.09894303977489471,-0.02456737495958805,0.01628761552274227,-0.01169776450842619,0.0,0.0,-1.1629085540771484,0.068,6.86e-05,9.2e-05,0.0001366,0.0
1.77,-0.08351616561412811,-24.64594268798828,-1.4697138794872444e-05,7.956150511745363e-06,3.200775245204568e-05,0.1986600160598755,-0.10233914107084274,0.0978926420211792,-0.02236221171915531,0.015063058584928513,-0.010637142695486546,0.0,0.0,-0.965764045715332,0.068,6.86e-05,9.2e-05,0.0001366,0.0
1.78,-0.07834313809871674,-24.53291893005371,-1.3572517673310358e-05,7.628919320268324e-06,3.1196846975944936e-05,0.19660641252994537,-0.10123202949762344,0.09690722078084946,-0.020298069342970848,0.013913607224822044,-0.009641083888709545,0.0,0.0,-0.7779650688171387,0.068,6.86e-05,9.2e-05,0.0001366,0.0
1.79,-0.07315407693386078,-24.422006607055664,-1.2492447240219917e-05,7.3060714385064784e-06,3.036262933164835e-05,0.1946580559015274,-0.1001804992556572,0.09597346931695938,-0.018346859142184258,0.012824168428778648,-0.008696251548826694,0.0,0.0,-0.5977624654769897,0.068,6.86e-05,9.2e-05,0.0001366,0.0
1.8,-0.06791530549526215,-24.312421798706055,-1.1452286344137974e-05,6.985050731600495e-06,2.9499773518182337e-05,0.19279171526432037,-0.0991722121834755,0.0950799509882927,-0.01648441143333912,0.01178164966404438,-0.007791179697960615,0.0,0.0,-0.4235420227050781,0.068,6.86e-05,9.2e-05,0.0001366,0.0
1.81,-0.06258837878704071,-24.203327178955078,-1.0446860869706143e-05,6.663266958639724e-06,2.860209315258544e-05,0.19098682701587677,-0.09819621592760086,0.09421662986278534,-0.014689544215798378,0.010774508118629456,-0.0069157942198216915,0.0,0.0,-0.2537945508956909,0.068,6.86e-05,9.2e-05,0.0001366,0.0
1.82,-0.05712948739528656,-24.093830108642578,-9.471305020269938e-06,6.338035291264532e-06,2.7662144930218346e-05,0.18922476470470428,-0.09724253416061401,0.09337443858385086,-0.0129432063549757,0.009792277589440346,-0.0060609872452914715,0.0,0.0,-0.08707202225923538,0.068,6.86e-05,9.2e-05,0.0001366,0.0
1.83,-0.05148760974407196,-23.98296546936035,-8.52016091812402e-06,6.00641169512528e-06,2.667084481799975e-05,0.18748807907104492,-0.09630179405212402,0.09254495054483414,-0.01122773252427578,0.008825195953249931,-0.005218272563070059,0.0,0.0,0.07804655283689499,0.068,6.86e-05,9.2e-05,0.0001366,0.0
1.84,-0.045602962374687195,-23.869657516479492,-7.588565040350659e-06,5.665138814947568e-06,2.5617062419769354e-05,0.18575993180274963,-0.09536492079496384,0.09172006696462631,-0.009526273235678673,0.007863854989409447,-0.0043794638477265835,0.0,0.0,0.2429935783147812,0.068,6.86e-05,9.2e-05,0.0001366,0.0
1.85,-0.039404019713401794,-23.752689361572266,-6.6713123487716075e-06,5.31047908225446e-06,2.448704617563635e-05,0.18402345478534698,-0.09442279487848282,0.09089173376560211,-0.007822128012776375,0.0068988860584795475,-0.003536434145644307,0.0,0.0,0.40926146507263184,0.068,6.86e-05,9.2e-05,0.0001366,0.0
1.86,-0.03280310332775116,-23.630640029907227,-5.7636229939816985e-06,4.938020083500305e-06,2.32635393331293e-05,0.18226124346256256,-0.09346591681241989,0.09005165100097656,-0.00609819358214736,0.0059206136502325535,-0.002680762903764844,0.0,0.0,0.5784554481506348,0.068,6.86e-05,9.2e-05,0.0001366,0.0
1.87,-0.025691496208310127,-23.501802444458008,-4.8601236812828574e-06,4.542419446806889e-06,2.192441934312228e-05,0.1804545670747757,-0.09248407185077667,0.08919098228216171,-0.004336302634328604,0.004918674472719431,-0.0018034738022834063,0.0,0.0,0.752357006072998,0.068,6.86e-05,9.2e-05,0.0001366,0.0
1.8800000000000001,-0.017930136993527412,-23.36408042907715,-3.955977717851056e-06,4.1170528675138485e-06,2.0441268134163693e-05,0.17858274281024933,-0.09146590530872345,0.08830001950263977,-0.002516572829335928,0.0038816635496914387,-0.0008946911548264325,0.0,0.0,0.9330148696899414,0.068,6.86e-05,9.2e-05,0.0001366,0.0
1.8900000000000001,-0.009338753297924995,-23.214826583862305,-3.04592504107859e-06,3.6534606806526426e-06,1.877649083326105e-05,0.17662225663661957,-0.09039847552776337,0.08736784011125565,-0.0006165519007481635,0.00279663922265172,5.672377301380038e-05,0.0,0.0,1.1228561401367188,0.068,6.86e-05,9.2e-05,0.0001366,0.0
1.9000000000000001,0.00032315999851562083,-23.050609588623047,-2.124369530065451e-06,3.1406357265950646e-06,1.6879295799299143e-05,0.17454588413238525,-0.08926670253276825,0.08638190478086472,0.0013896101154386997,0.0016486014937981963,0.0010635561775416136,0.0,0.0,1.3248436450958252,0.068,6.86e-05,9.2e-05,0.0001366,0.0
1.9100000000000001,0.011383725330233574,-22.86688995361328,-1.184785560326418e-06,2.5636859390942845e-06,1.4679564628750086e-05,0.17232167720794678,-0.08805279433727264,0.08532773703336716,0.0035320580936968327,0.00041997653897851706,0.0021405916195362806,0.0,0.0,1.5426990985870361,0.068,6.86e-05,9.2e-05,0.0001366,0.0
1.92,0.024301929399371147,-22.657493591308594,-2.199730886331963e-07,1.9019814772036625e-06,1.2076944585714955e-05,0.16991226375102997,-0.08673582226037979,0.0841888040304184,0.0058458601124584675,-0.0009098440641537309,0.0033047597389668226,0.0,0.0,1.7812292575836182,0.068,6.86e-05,9.2e-05,0.0001366,0.0
1.93,0.03973682224750519,-22.413848876953125,7.809804856151459e-07,1.1257320693403017e-06,8.92251955519896e-06,0.1672753542661667,-0.08529184013605118,0.08294715732336044,0.008370397612452507,-0.0023642792366445065,0.00457453029230237,0.0,0.0,2.0468173027038574,0.068,6.86e-05,9.2e-05,0.0001366,0.0
1.94,0.058658793568611145,-22.123828887939453,1.8344723002883256e-06,1.8986374072937906e-07,4.983703092875658e-06,0.1643678992986679,-0.08369609713554382,0.08158619701862335,0.011144917458295822,-0.003967400174587965,0.005967202130705118,0.0,0.0,2.348188877105713,0.068,6.86e-05,9.2e-05,0.0001366,0.0
1.95,0.08252136409282684,-21.77008628845215,2.970708919747267e-06,-9.780696927919053e-07,-1.264115212507022e-07,0.16116181015968323,-0.08193138241767883,0.0800996944308281,0.014192495495080948,-0.005735477898269892,0.007490165065973997,0.0,0.0,2.6976490020751953,0.068,6.86e-05,9.2e-05,0.0001366,0.0
1.96,0.11348648369312286,-21.328216552734375,4.24799418397015e-06,-2.5036138140421826e-06,-7.106161319825333e-06,0.1576947420835495,-0.08001583069562912,0.07851884514093399,0.017468063160777092,-0.0076493010856211185,0.009114332497119904,0.0,0.0,3.113126277923584,0.068,6.86e-05,9.2e-05,0.0001366,0.0
1.97,0.15447185933589935,-20.767478942871094,5.780376341135707e-06,-4.6228806240833364e-06,-1.7331614799331874e-05,0.1542336642742157,-0.07809295505285263,0.0769953578710556,0.02069188468158245,-0.009563462808728218,0.010693068616092205,0.0,0.0,3.6211466789245605,0.068,6.86e-05,9.2e-05,0.0001366,0.0
1.98,0.20754055678844452,-20.06964874267578,7.738802196399774e-06,-7.793437362124678e-06,-3.365669181221165e-05,0.15181362628936768,-0.07672987878322601,0.07606452703475952,0.02280621975660324,-0.010906083509325981,0.011706682853400707,0.0,0.0,4.256557941436768,0.068,6.86e-05,9.2e-05,0.0001366,0.0
